c_alt_time,c_ballast_pumped,c_heading,c_science_send_all,c_wpt_x_lmc,c_wpt_y_lmc,f_fin_offset,m_avg_speed,m_battpos,m_coulomb_amphr,m_fin,m_final_water_vx,m_final_water_vy,m_gps_lat,m_gps_lon,m_gps_status,m_heading,m_lat,m_leakdetect_voltage,m_leakdetect_voltage_forward,m_lon,m_pitch,m_present_time,m_pressure,m_roll,m_tot_num_inflections,m_vacuum,m_veh_temp,m_water_depth,m_water_vx,m_water_vy,m_x_lmc,m_y_lmc,sci_bb3slo_b470_scaled,sci_bb3slo_b532_scaled,sci_bb3slo_b660_scaled,sci_ctd41cp_timestamp,sci_fl3slo_cdom_units,sci_fl3slo_chlor_units,sci_fl3slo_phyco_units,sci_m_present_time,sci_water_cond,sci_water_pressure,sci_water_temp,u_hd_fin_ap_gain,u_hd_fin_ap_hardover_holdoff,u_hd_fin_ap_igain,u_hd_fin_ap_inflection_holdoff,u_min_water_depth,u_pitch_ap_deadband,u_pitch_ap_gain,u_pitch_max_delta_battpos,x_cycle_overrun_in_ms,x_lmc_xy_source
4.0,4.0,4.0,1.0,4.0,4.0,4.0,4.0,4.0,4.0,4.0,4.0,4.0,8.0,8.0,1.0,4.0,8.0,4.0,4.0,8.0,4.0,8.0,4.0,4.0,4.0,4.0,4.0,4.0,4.0,4.0,4.0,4.0,4.0,4.0,4.0,8.0,4.0,4.0,4.0,8.0,4.0,4.0,4.0,4.0,4.0,4.0,4.0,4.0,4.0,4.0,4.0,4.0,1.0
nan,nan,nan,nan,nan,nan,nan,nan,nan,nan,nan,nan,nan,nan,nan,nan,nan,nan,nan,nan,nan,nan,1.32726e+09,nan,nan,nan,nan,nan,nan,nan,nan,nan,nan,0.0,0.0,0.0,1.32726e+09,0.0,0.0,0.0,1.32726e+09,2.76105,-0.031,-0.1083,nan,nan,nan,nan,nan,nan,nan,nan,nan,nan
-1.0,213.0,4.13524,0.0,-29320.3,-6387.56,0.0,0.280481,0.964934,0.0,-0.0147954,0.00697163,0.0155876,-6742.52,-6910.83,0.0,4.48026,-6742.52,2.49973,-1.0,-6910.84,-0.125664,1.32726e+09,0.238901,-0.219911,50863.0,7.96216,-1.0,-1.0,0.00697163,0.0155876,0.0851306,0.19034,nan,nan,nan,nan,nan,nan,nan,nan,nan,nan,nan,1.0,120.0,0.03,-1.0,20.0,0.0524,-2.86,0.045,1.0,1.0
nan,nan,nan,0.0,-29320.3,-6387.56,0.0,nan,nan,nan,nan,0.00697163,0.0155876,-6742.52,-6910.83,0.0,nan,nan,nan,nan,nan,nan,1.32726e+09,nan,nan,50863.0,nan,nan,-1.0,0.00697163,0.0155876,0.0851306,0.19034,nan,nan,nan,nan,nan,nan,nan,nan,nan,nan,nan,1.0,120.0,0.03,-1.0,20.0,0.0524,-2.86,0.045,nan,-1.0
nan,nan,nan,nan,nan,nan,nan,nan,nan,nan,nan,nan,nan,nan,nan,1.0,nan,nan,nan,nan,nan,nan,1.32726e+09,nan,nan,nan,nan,nan,nan,nan,nan,nan,nan,nan,nan,nan,nan,nan,nan,nan,nan,nan,nan,nan,nan,nan,nan,nan,nan,nan,nan,nan,nan,nan
nan,nan,nan,nan,nan,nan,nan,nan,nan,nan,nan,nan,nan,nan,nan,1.0,nan,nan,nan,nan,nan,nan,1.32726e+09,nan,nan,nan,nan,nan,nan,nan,nan,nan,nan,nan,nan,nan,nan,nan,nan,nan,nan,nan,nan,nan,nan,nan,nan,nan,nan,nan,nan,nan,nan,nan
nan,nan,nan,nan,nan,nan,nan,nan,nan,nan,nan,nan,nan,-6742.56,-6910.62,nan,nan,nan,nan,nan,nan,nan,1.32726e+09,nan,nan,nan,nan,nan,nan,nan,nan,nan,nan,nan,nan,nan,nan,nan,nan,nan,nan,nan,nan,nan,nan,nan,nan,nan,nan,nan,nan,nan,nan,nan
nan,nan,nan,nan,nan,nan,nan,nan,nan,nan,nan,nan,nan,-6742.56,-6910.63,nan,nan,nan,nan,nan,nan,nan,1.32726e+09,nan,nan,nan,nan,nan,nan,nan,nan,nan,nan,nan,nan,nan,nan,nan,nan,nan,nan,nan,nan,nan,nan,nan,nan,nan,nan,nan,nan,nan,nan,nan
nan,nan,nan,nan,nan,nan,nan,nan,nan,nan,nan,nan,nan,-6742.56,-6910.62,0.0,nan,nan,nan,nan,nan,nan,1.32726e+09,nan,nan,50864.0,nan,nan,nan,nan,nan,nan,nan,nan,nan,nan,nan,nan,nan,nan,nan,nan,nan,nan,nan,nan,nan,nan,nan,nan,nan,nan,nan,nan
nan,nan,nan,nan,-11210.4,-11327.4,nan,nan,nan,nan,nan,nan,nan,-6742.56,-6910.63,nan,nan,nan,nan,nan,nan,nan,1.32726e+09,nan,nan,nan,nan,nan,nan,nan,nan,0.161428,-1.73621,nan,nan,nan,nan,nan,nan,nan,nan,nan,nan,nan,nan,nan,nan,nan,nan,nan,nan,nan,nan,3.0
nan,nan,nan,nan,nan,nan,nan,nan,nan,nan,nan,nan,nan,-6742.56,-6910.62,nan,nan,nan,nan,nan,nan,nan,1.32726e+09,nan,nan,nan,nan,nan,nan,nan,nan,nan,nan,nan,nan,nan,nan,nan,nan,nan,nan,nan,nan,nan,nan,nan,nan,nan,nan,nan,nan,nan,nan,nan
nan,nan,nan,nan,nan,nan,nan,nan,nan,nan,nan,nan,nan,-6742.56,-6910.62,nan,nan,nan,nan,nan,nan,nan,1.32726e+09,nan,nan,nan,nan,nan,nan,nan,nan,nan,nan,nan,nan,nan,nan,nan,nan,nan,nan,nan,nan,nan,nan,nan,nan,nan,nan,nan,nan,nan,nan,nan
nan,nan,nan,nan,nan,nan,nan,nan,nan,nan,nan,nan,nan,-6742.56,-6910.62,0.0,nan,nan,nan,nan,nan,nan,1.32726e+09,nan,nan,nan,nan,nan,nan,nan,nan,nan,nan,nan,nan,nan,nan,nan,nan,nan,nan,nan,nan,nan,nan,nan,nan,nan,nan,nan,nan,nan,nan,nan
nan,nan,nan,nan,nan,nan,nan,nan,nan,nan,nan,nan,nan,-6742.56,-6910.62,nan,nan,nan,nan,nan,nan,nan,1.32726e+09,nan,nan,nan,nan,nan,nan,nan,nan,nan,nan,nan,nan,nan,nan,nan,nan,nan,nan,nan,nan,nan,nan,nan,nan,nan,nan,nan,nan,nan,nan,nan
nan,nan,nan,nan,nan,nan,nan,nan,nan,nan,nan,nan,nan,-6742.56,-6910.62,nan,nan,nan,nan,nan,nan,nan,1.32726e+09,nan,nan,nan,nan,nan,nan,nan,nan,nan,nan,nan,nan,nan,nan,nan,nan,nan,nan,nan,nan,nan,nan,nan,nan,nan,nan,nan,nan,nan,nan,nan
nan,nan,nan,nan,nan,nan,nan,nan,nan,nan,nan,nan,nan,-6742.56,-6910.62,nan,nan,nan,nan,nan,nan,nan,1.32726e+09,nan,nan,nan,nan,nan,nan,nan,nan,nan,nan,nan,nan,nan,nan,nan,nan,nan,nan,nan,nan,nan,nan,nan,nan,nan,nan,nan,nan,nan,nan,nan
nan,nan,nan,nan,nan,nan,nan,nan,nan,nan,nan,nan,nan,-6742.56,-6910.62,0.0,nan,nan,nan,nan,nan,nan,1.32726e+09,nan,nan,nan,nan,nan,nan,nan,nan,nan,nan,nan,nan,nan,nan,nan,nan,nan,nan,nan,nan,nan,nan,nan,nan,nan,nan,nan,nan,nan,nan,nan
nan,nan,nan,nan,nan,nan,nan,nan,nan,nan,nan,nan,nan,-6742.56,-6910.62,nan,nan,nan,nan,nan,nan,nan,1.32726e+09,nan,nan,nan,nan,nan,nan,nan,nan,nan,nan,nan,nan,nan,nan,nan,nan,nan,nan,nan,nan,nan,nan,nan,nan,nan,nan,nan,nan,nan,nan,nan
-1.0,nan,nan,nan,nan,nan,nan,nan,0.188936,nan,-0.563047,nan,nan,-6742.56,-6910.63,nan,4.22021,nan,nan,nan,nan,nan,1.32726e+09,0.202485,-0.0593412,nan,nan,nan,nan,nan,nan,nan,nan,nan,nan,nan,nan,nan,nan,nan,nan,nan,nan,nan,nan,nan,nan,nan,nan,nan,nan,nan,nan,nan
nan,nan,nan,nan,nan,nan,nan,nan,nan,nan,nan,nan,nan,nan,nan,nan,nan,nan,nan,nan,nan,nan,1.32726e+09,nan,nan,nan,nan,nan,nan,nan,nan,nan,nan,0.00108686,0.000945351,0.000680391,1.32726e+09,0.8433,0.4674,0.0,1.32726e+09,2.76014,0.256,-0.1241,nan,nan,nan,nan,nan,nan,nan,nan,nan,nan
nan,nan,nan,nan,nan,nan,nan,nan,nan,nan,nan,nan,nan,nan,nan,0.0,nan,nan,nan,nan,nan,nan,1.32726e+09,nan,nan,nan,nan,nan,nan,nan,nan,nan,nan,nan,nan,nan,nan,nan,nan,nan,nan,nan,nan,nan,nan,nan,nan,nan,nan,nan,nan,nan,nan,nan
nan,nan,nan,nan,nan,nan,nan,nan,nan,nan,nan,nan,nan,nan,nan,nan,nan,nan,nan,nan,nan,nan,1.32726e+09,nan,nan,nan,nan,nan,nan,nan,nan,nan,nan,0.00113945,0.0009549,0.000658156,1.32726e+09,0.8433,0.5904,-0.0428,1.32726e+09,2.75905,0.383,-0.1421,nan,nan,nan,nan,nan,nan,nan,nan,nan,nan
nan,nan,nan,nan,nan,nan,nan,nan,nan,nan,nan,nan,nan,nan,nan,nan,nan,nan,nan,nan,nan,nan,1.32726e+09,nan,nan,nan,nan,nan,nan,nan,nan,nan,nan,0.0010518,0.000983547,0.000693732,1.32726e+09,0.937,0.7011,0.0,1.32726e+09,2.75847,0.542,-0.163,nan,nan,nan,nan,nan,nan,nan,nan,nan,nan
nan,nan,nan,nan,nan,nan,nan,nan,nan,nan,nan,nan,nan,nan,nan,nan,nan,nan,nan,nan,nan,nan,1.32726e+09,nan,-0.0226893,nan,nan,nan,nan,nan,nan,nan,nan,nan,nan,nan,nan,nan,nan,nan,nan,nan,nan,nan,nan,nan,nan,nan,nan,nan,nan,nan,nan,nan
nan,nan,nan,nan,nan,nan,nan,nan,nan,nan,nan,nan,nan,nan,nan,nan,nan,nan,nan,nan,nan,nan,1.32726e+09,nan,nan,nan,nan,nan,nan,nan,nan,nan,nan,0.0010518,0.000849861,0.000631474,1.32726e+09,0.8433,1.0824,0.0,1.32726e+09,2.76328,0.683,-0.1338,nan,nan,nan,nan,nan,nan,nan,nan,nan,nan
nan,nan,nan,nan,nan,nan,nan,nan,nan,nan,nan,nan,nan,nan,nan,nan,nan,nan,nan,nan,nan,nan,1.32726e+09,nan,nan,nan,nan,nan,nan,nan,nan,nan,nan,0.00084144,0.000697077,0.000462488,1.32726e+09,0.8433,1.2792,0.0,1.32726e+09,2.76785,0.832,-0.1069,nan,nan,nan,nan,nan,nan,nan,nan,nan,nan
nan,nan,nan,nan,nan,nan,nan,nan,nan,nan,nan,nan,nan,nan,nan,nan,nan,nan,nan,nan,nan,nan,1.32726e+09,nan,nan,nan,nan,nan,nan,nan,nan,nan,nan,0.00085897,0.000754371,0.000546981,1.32726e+09,0.8433,1.4514,0.0,1.32726e+09,2.76827,0.981,-0.1078,nan,nan,nan,nan,nan,nan,nan,nan,nan,nan
nan,nan,nan,nan,nan,nan,nan,nan,nan,nan,-0.1302,nan,nan,nan,nan,nan,3.24108,nan,nan,nan,nan,nan,1.32726e+09,1.0649,nan,nan,nan,nan,nan,nan,nan,nan,nan,nan,nan,nan,nan,nan,nan,nan,nan,nan,nan,nan,nan,nan,nan,nan,nan,nan,nan,nan,nan,nan
nan,nan,nan,nan,nan,nan,nan,nan,nan,nan,nan,nan,nan,nan,nan,nan,nan,nan,nan,nan,nan,nan,1.32726e+09,nan,nan,nan,nan,nan,nan,nan,nan,nan,nan,0.00091156,0.000735273,0.000520299,1.32726e+09,0.5622,1.4391,0.0428,1.32726e+09,2.76857,1.172,-0.1096,nan,nan,nan,nan,nan,nan,nan,nan,nan,nan
nan,nan,nan,nan,nan,nan,nan,nan,nan,nan,nan,nan,nan,nan,nan,nan,nan,nan,nan,nan,nan,nan,1.32726e+09,nan,nan,nan,nan,nan,96.7653,nan,nan,nan,nan,nan,nan,nan,nan,nan,nan,nan,nan,nan,nan,nan,nan,nan,nan,nan,nan,nan,nan,nan,nan,nan
0.0,nan,nan,nan,nan,nan,nan,nan,0.200205,nan,nan,nan,nan,nan,nan,nan,nan,nan,nan,nan,nan,nan,1.32726e+09,nan,-0.0418879,nan,nan,nan,nan,nan,nan,nan,nan,nan,nan,nan,nan,nan,nan,nan,nan,nan,nan,nan,nan,nan,nan,nan,nan,nan,nan,nan,nan,nan
nan,nan,nan,nan,nan,nan,nan,nan,nan,nan,nan,nan,nan,nan,nan,nan,nan,nan,nan,nan,nan,nan,1.32726e+09,nan,nan,nan,nan,nan,nan,nan,nan,nan,nan,0.00085897,0.000697077,0.000511405,1.32726e+09,0.7496,1.1808,-0.0428,1.32726e+09,2.77133,1.334,-0.0901,nan,nan,nan,nan,nan,nan,nan,nan,nan,nan
nan,nan,nan,nan,nan,nan,nan,nan,nan,nan,nan,nan,nan,nan,nan,nan,nan,nan,nan,nan,nan,nan,1.32726e+09,nan,nan,nan,nan,nan,nan,nan,nan,nan,nan,0.00078885,0.000649332,0.000449147,1.32726e+09,0.937,1.1685,0.0,1.32726e+09,2.7756,1.498,-0.0511,nan,nan,nan,nan,nan,nan,nan,nan,nan,nan
nan,nan,nan,nan,nan,nan,nan,nan,nan,nan,nan,nan,nan,nan,nan,nan,nan,nan,nan,nan,nan,nan,1.32726e+09,nan,nan,nan,nan,nan,nan,nan,nan,nan,nan,0.00077132,0.000620685,0.000373548,1.32726e+09,0.8433,1.0947,0.0,1.32726e+09,2.77828,1.708,-0.0293,nan,nan,nan,nan,nan,nan,nan,nan,nan,nan
nan,nan,nan,nan,nan,nan,nan,nan,nan,nan,nan,nan,nan,nan,nan,nan,nan,nan,nan,nan,nan,nan,1.32726e+09,nan,nan,nan,nan,nan,nan,nan,nan,nan,nan,0.00078885,0.000601587,0.000377995,1.32726e+09,0.8433,0.9963,0.0,1.32726e+09,2.77919,1.87,-0.0252,nan,nan,nan,nan,nan,nan,nan,nan,nan,nan
nan,nan,nan,nan,nan,nan,nan,nan,nan,nan,nan,nan,nan,nan,nan,nan,nan,nan,nan,nan,nan,nan,1.32726e+09,nan,-0.0401426,nan,nan,nan,nan,nan,nan,nan,nan,nan,nan,nan,nan,nan,nan,nan,nan,nan,nan,nan,nan,nan,nan,nan,nan,nan,nan,nan,nan,nan
nan,nan,nan,nan,nan,nan,nan,nan,nan,nan,0.294637,nan,nan,nan,nan,nan,3.64425,nan,nan,nan,nan,nan,1.32726e+09,2.0349,nan,nan,nan,nan,nan,nan,nan,nan,nan,nan,nan,nan,nan,nan,nan,nan,nan,nan,nan,nan,nan,nan,nan,nan,nan,nan,nan,nan,nan,nan
nan,nan,nan,nan,nan,nan,nan,nan,nan,nan,nan,nan,nan,nan,nan,nan,nan,nan,nan,nan,nan,nan,1.32726e+09,nan,nan,nan,nan,nan,nan,nan,nan,nan,nan,0.00075379,0.000649332,0.000364654,1.32726e+09,0.937,0.9348,-0.0428,1.32726e+09,2.77954,2.036,-0.0251,nan,nan,nan,nan,nan,nan,nan,nan,nan,nan
nan,nan,nan,nan,nan,nan,nan,nan,nan,nan,nan,nan,nan,nan,nan,nan,nan,nan,nan,nan,nan,nan,1.32726e+09,nan,nan,nan,nan,nan,nan,nan,nan,nan,nan,0.00077132,0.000649332,0.000360207,1.32726e+09,0.8433,0.8118,-0.0428,1.32726e+09,2.77957,2.247,-0.0312,nan,nan,nan,nan,nan,nan,nan,nan,nan,nan
nan,nan,nan,nan,nan,nan,nan,nan,nan,nan,nan,nan,nan,nan,nan,nan,nan,nan,nan,nan,nan,nan,1.32726e+09,nan,nan,nan,nan,nan,nan,nan,nan,nan,nan,0.0007012,0.00057294,0.000337972,1.32726e+09,0.937,0.7011,-0.0428,1.32726e+09,2.7791,2.405,-0.0575,nan,nan,nan,nan,nan,nan,nan,nan,nan,nan
-1.0,nan,nan,nan,nan,nan,nan,nan,0.201229,nan,nan,nan,nan,nan,nan,nan,nan,nan,nan,nan,nan,nan,1.32726e+09,nan,-0.0314159,nan,nan,nan,nan,nan,nan,nan,nan,nan,nan,nan,nan,nan,nan,nan,nan,nan,nan,nan,nan,nan,nan,nan,nan,nan,nan,nan,nan,nan
nan,nan,nan,nan,nan,nan,nan,nan,nan,nan,nan,nan,nan,nan,nan,nan,nan,nan,nan,nan,nan,nan,1.32726e+09,nan,nan,nan,nan,nan,nan,nan,nan,nan,nan,0.00068367,0.000582489,0.000329078,1.32726e+09,0.937,0.6519,-0.0428,1.32726e+09,2.77722,2.567,-0.0896,nan,nan,nan,nan,nan,nan,nan,nan,nan,nan
nan,nan,nan,nan,nan,nan,nan,nan,nan,nan,nan,nan,nan,nan,nan,nan,nan,nan,nan,nan,nan,nan,1.32726e+09,nan,nan,nan,nan,nan,nan,nan,nan,nan,nan,0.00066614,0.000582489,0.00031129,1.32726e+09,0.6559,0.6519,-0.0428,1.32726e+09,2.77757,2.771,-0.1022,nan,nan,nan,nan,nan,nan,nan,nan,nan,nan
nan,-213.0,3.90211,nan,nan,nan,nan,0.281695,nan,nan,nan,nan,nan,nan,nan,nan,nan,-6742.57,nan,nan,-6910.67,nan,1.32726e+09,nan,nan,nan,nan,nan,nan,nan,nan,nan,nan,nan,nan,nan,nan,nan,nan,nan,nan,nan,nan,nan,nan,nan,nan,nan,nan,nan,nan,nan,nan,nan
nan,nan,nan,nan,nan,nan,nan,nan,nan,nan,nan,nan,nan,nan,nan,nan,nan,nan,nan,nan,nan,nan,1.32726e+09,nan,nan,nan,nan,nan,nan,nan,nan,nan,nan,0.00066614,0.00057294,0.000333525,1.32726e+09,0.6559,0.7257,-0.0428,1.32726e+09,2.77778,2.936,-0.1026,nan,nan,nan,nan,nan,nan,nan,nan,nan,nan
nan,nan,nan,nan,nan,nan,nan,nan,nan,nan,0.0739772,nan,nan,nan,nan,nan,4.06836,nan,nan,nan,nan,nan,1.32726e+09,3.00201,nan,nan,nan,nan,nan,nan,nan,nan,nan,nan,nan,nan,nan,nan,nan,nan,nan,nan,nan,nan,nan,nan,nan,nan,nan,nan,nan,nan,nan,nan
nan,nan,nan,nan,nan,nan,nan,nan,nan,nan,nan,nan,nan,nan,nan,nan,nan,nan,nan,nan,nan,nan,1.32726e+09,nan,nan,nan,nan,nan,nan,nan,nan,nan,nan,0.00066614,0.000553842,0.00031129,1.32726e+09,0.5622,0.6765,0.0,1.32726e+09,2.77774,3.095,-0.1024,nan,nan,nan,nan,nan,nan,nan,nan,nan,nan
nan,nan,nan,nan,nan,nan,nan,nan,nan,nan,nan,nan,nan,nan,nan,nan,nan,nan,nan,nan,nan,nan,1.32726e+09,nan,-0.0314159,nan,nan,nan,nan,nan,nan,nan,nan,nan,nan,nan,nan,nan,nan,nan,nan,nan,nan,nan,nan,nan,nan,nan,nan,nan,nan,nan,nan,nan
nan,nan,nan,nan,nan,nan,nan,nan,nan,nan,nan,nan,nan,nan,nan,nan,nan,nan,nan,nan,nan,nan,1.32726e+09,nan,nan,nan,nan,nan,nan,nan,nan,nan,nan,0.00066614,0.000563391,0.000337972,1.32726e+09,0.6559,0.7134,-0.0428,1.32726e+09,2.78153,3.297,-0.0639,nan,nan,nan,nan,nan,nan,nan,nan,nan,nan
nan,nan,nan,nan,nan,nan,nan,nan,nan,nan,nan,nan,nan,nan,nan,nan,nan,nan,nan,nan,nan,nan,1.32726e+09,nan,nan,nan,nan,nan,nan,nan,nan,nan,nan,0.00061355,0.000563391,0.000280161,1.32726e+09,0.8433,0.6888,-0.0856,1.32726e+09,2.79724,3.459,0.069,nan,nan,nan,nan,nan,nan,nan,nan,nan,nan
nan,nan,nan,nan,nan,nan,nan,nan,nan,nan,nan,nan,nan,nan,nan,nan,nan,nan,nan,nan,nan,nan,1.32726e+09,nan,nan,nan,nan,nan,nan,nan,nan,nan,nan,0.00059602,0.000486999,0.000257926,1.32726e+09,0.937,0.738,-0.0428,1.32726e+09,2.80141,3.652,0.0875,nan,nan,nan,nan,nan,nan,nan,nan,nan,nan
-1.0,nan,nan,nan,nan,nan,nan,nan,0.19918,nan,nan,nan,nan,nan,nan,nan,nan,nan,nan,nan,nan,nan,1.32726e+09,nan,-0.0314159,nan,nan,nan,nan,nan,nan,nan,nan,nan,nan,nan,nan,nan,nan,nan,nan,nan,nan,nan,nan,nan,nan,nan,nan,nan,nan,nan,nan,nan
nan,nan,nan,nan,nan,nan,nan,nan,nan,nan,nan,nan,nan,nan,nan,nan,nan,nan,nan,nan,nan,nan,1.32726e+09,nan,nan,nan,nan,nan,nan,nan,nan,nan,nan,0.00057849,0.000515646,0.000280161,1.32726e+09,0.8433,0.8241,-0.0856,1.32726e+09,2.80412,3.808,0.1131,nan,nan,nan,nan,nan,nan,nan,nan,nan,nan
nan,nan,nan,nan,nan,nan,nan,nan,nan,nan,-0.121323,nan,nan,nan,nan,nan,4.02124,nan,nan,nan,nan,nan,1.32726e+09,3.9596,nan,nan,nan,nan,nan,nan,nan,nan,nan,nan,nan,nan,nan,nan,nan,nan,nan,nan,nan,nan,nan,nan,nan,nan,nan,nan,nan,nan,nan,nan
nan,nan,nan,nan,nan,nan,nan,nan,nan,nan,nan,nan,nan,nan,nan,nan,nan,nan,nan,nan,nan,nan,1.32726e+09,nan,nan,nan,nan,nan,nan,nan,nan,nan,nan,0.0005259,0.000496548,0.000244585,1.32726e+09,0.7496,0.8979,-0.0856,1.32726e+09,2.80694,3.998,0.1379,nan,nan,nan,nan,nan,nan,nan,nan,nan,nan
nan,nan,nan,nan,nan,nan,nan,nan,nan,nan,nan,nan,nan,nan,nan,nan,nan,nan,nan,nan,nan,nan,1.32726e+09,nan,nan,nan,nan,nan,nan,nan,nan,nan,nan,0.00057849,0.000467901,0.000257926,1.32726e+09,0.8433,0.9102,-0.0428,1.32726e+09,2.80991,4.155,0.171,nan,nan,nan,nan,nan,nan,nan,nan,nan,nan
nan,nan,nan,nan,nan,nan,nan,nan,nan,nan,nan,nan,nan,nan,nan,nan,nan,nan,nan,nan,nan,nan,1.32726e+09,nan,nan,nan,nan,nan,98.947,nan,nan,nan,nan,nan,nan,nan,nan,nan,nan,nan,nan,nan,nan,nan,nan,nan,nan,nan,nan,nan,nan,nan,nan,nan
nan,nan,nan,nan,nan,nan,nan,nan,nan,nan,nan,nan,nan,nan,nan,nan,nan,nan,nan,nan,nan,nan,1.32726e+09,nan,nan,nan,nan,nan,nan,nan,nan,nan,nan,0.00057849,0.000467901,0.000244585,1.32726e+09,0.937,0.8856,-0.0428,1.32726e+09,2.81099,4.306,0.1767,nan,nan,nan,nan,nan,nan,nan,nan,nan,nan
nan,nan,nan,nan,nan,nan,nan,nan,nan,nan,nan,nan,nan,nan,nan,nan,nan,nan,nan,nan,nan,nan,1.32726e+09,nan,0.0,nan,nan,nan,nan,nan,nan,nan,nan,nan,nan,nan,nan,nan,nan,nan,nan,nan,nan,nan,nan,nan,nan,nan,nan,nan,nan,nan,nan,nan
nan,nan,nan,nan,nan,nan,nan,nan,nan,nan,nan,nan,nan,nan,nan,nan,nan,nan,nan,nan,nan,nan,1.32726e+09,nan,nan,nan,nan,nan,nan,nan,nan,nan,nan,0.00056096,0.000467901,0.000262373,1.32726e+09,0.7496,0.8487,-0.0856,1.32726e+09,2.81196,4.501,0.1776,nan,nan,nan,nan,nan,nan,nan,nan,nan,nan
nan,nan,nan,nan,nan,nan,nan,nan,nan,nan,nan,nan,nan,nan,nan,nan,nan,nan,nan,nan,nan,nan,1.32726e+09,nan,nan,nan,nan,nan,nan,nan,nan,nan,nan,0.00108686,0.00134641,0.000231244,1.32726e+09,0.8433,0.8733,-0.0428,1.32726e+09,2.81228,4.675,0.1797,nan,nan,nan,nan,nan,nan,nan,nan,nan,nan
nan,nan,nan,nan,nan,nan,nan,nan,nan,nan,nan,nan,nan,nan,nan,nan,nan,nan,nan,nan,nan,nan,1.32726e+09,nan,nan,nan,nan,nan,nan,nan,nan,nan,nan,0.00056096,0.000467901,0.00022235,1.32726e+09,0.8433,0.8733,-0.0856,1.32726e+09,2.81233,4.84,0.1742,nan,nan,nan,nan,nan,nan,nan,nan,nan,nan
nan,nan,nan,nan,nan,nan,nan,nan,nan,nan,-0.0887726,nan,nan,nan,nan,nan,3.85718,nan,nan,nan,nan,nan,1.32726e+09,4.91057,nan,nan,nan,nan,nan,nan,nan,nan,nan,nan,nan,nan,nan,nan,nan,nan,nan,nan,nan,nan,nan,nan,nan,nan,nan,nan,nan,nan,nan,nan
-1.0,nan,nan,nan,nan,nan,nan,nan,0.194058,nan,nan,nan,nan,nan,nan,nan,nan,nan,nan,nan,nan,nan,1.32726e+09,nan,-0.0383972,nan,nan,nan,nan,nan,nan,nan,nan,nan,nan,nan,nan,nan,nan,nan,nan,nan,nan,nan,nan,nan,nan,nan,nan,nan,nan,nan,nan,nan
nan,nan,nan,nan,nan,nan,nan,nan,nan,nan,nan,nan,nan,nan,nan,nan,nan,nan,nan,nan,nan,nan,1.32726e+09,nan,nan,nan,nan,nan,nan,nan,nan,nan,nan,0.00054343,0.000458352,0.00022235,1.32726e+09,0.8433,0.8241,-0.0428,1.32726e+09,2.8124,5.044,0.1677,nan,nan,nan,nan,nan,nan,nan,nan,nan,nan
nan,nan,nan,nan,nan,nan,nan,nan,nan,nan,nan,nan,nan,nan,nan,nan,nan,nan,nan,nan,nan,nan,1.32726e+09,nan,nan,nan,nan,nan,nan,nan,nan,nan,nan,0.00056096,0.000458352,0.00022235,1.32726e+09,0.937,0.8487,-0.0856,1.32726e+09,2.81297,5.21,0.1779,nan,nan,nan,nan,nan,nan,nan,nan,nan,nan
nan,nan,nan,nan,nan,nan,nan,nan,nan,nan,nan,nan,nan,nan,nan,nan,nan,nan,nan,nan,nan,nan,1.32726e+09,nan,nan,nan,nan,nan,nan,nan,nan,nan,nan,0.0005259,0.000439254,0.000226797,1.32726e+09,0.8433,0.8118,-0.0856,1.32726e+09,2.81245,5.352,0.1651,nan,nan,nan,nan,nan,nan,nan,nan,nan,nan
nan,nan,nan,nan,nan,nan,nan,nan,nan,nan,nan,nan,nan,nan,nan,nan,nan,nan,nan,nan,nan,nan,1.32726e+09,nan,nan,nan,nan,nan,nan,nan,nan,nan,nan,0.00056096,0.000448803,0.000217903,1.32726e+09,0.6559,0.8118,-0.0428,1.32726e+09,2.8121,5.515,0.1567,nan,nan,nan,nan,nan,nan,nan,nan,nan,nan
nan,nan,nan,nan,nan,nan,nan,nan,nan,nan,nan,nan,nan,nan,nan,nan,nan,nan,nan,nan,nan,nan,1.32726e+09,nan,-0.0541052,nan,nan,nan,nan,nan,nan,nan,nan,nan,nan,nan,nan,nan,nan,nan,nan,nan,nan,nan,nan,nan,nan,nan,nan,nan,nan,nan,nan,nan
nan,nan,nan,nan,nan,nan,nan,nan,nan,nan,nan,nan,nan,nan,nan,nan,nan,nan,nan,nan,nan,nan,1.32726e+09,nan,nan,nan,nan,nan,nan,nan,nan,nan,nan,0.0005259,0.000458352,0.000226797,1.32726e+09,0.5622,0.8118,-0.0856,1.32726e+09,2.81263,5.725,0.1641,nan,nan,nan,nan,nan,nan,nan,nan,nan,nan
nan,nan,nan,nan,nan,nan,nan,nan,nan,nan,nan,nan,nan,nan,nan,nan,nan,nan,nan,nan,nan,nan,1.32726e+09,nan,nan,nan,nan,nan,nan,nan,nan,nan,nan,0.00054343,0.000439254,0.00022235,1.32726e+09,0.6559,0.7995,-0.0856,1.32726e+09,2.81168,5.878,0.1454,nan,nan,nan,nan,nan,nan,nan,nan,nan,nan
nan,nan,nan,nan,nan,nan,nan,nan,nan,nan,0.0177545,nan,nan,nan,nan,nan,3.79958,nan,nan,nan,nan,nan,1.32726e+09,5.8574,nan,nan,nan,nan,nan,nan,nan,nan,nan,nan,nan,nan,nan,nan,nan,nan,nan,nan,nan,nan,nan,nan,nan,nan,nan,nan,nan,nan,nan,nan
nan,nan,nan,nan,nan,nan,nan,nan,nan,nan,nan,nan,nan,nan,nan,nan,nan,nan,nan,nan,nan,nan,1.32726e+09,nan,nan,nan,nan,nan,nan,nan,nan,nan,nan,0.00056096,0.000448803,0.00022235,1.32726e+09,0.937,0.738,-0.0428,1.32726e+09,2.8123,6.038,0.1537,nan,nan,nan,nan,nan,nan,nan,nan,nan,nan
nan,nan,nan,nan,nan,nan,nan,nan,nan,nan,nan,nan,nan,nan,nan,nan,nan,nan,nan,nan,nan,nan,1.32726e+09,nan,nan,nan,nan,nan,nan,nan,nan,nan,nan,0.0005259,0.000429705,0.000217903,1.32726e+09,0.7496,0.6273,-0.0428,1.32726e+09,2.8084,6.239,0.0862,nan,nan,nan,nan,nan,nan,nan,nan,nan,nan
0.0,nan,nan,nan,nan,nan,nan,nan,0.198668,nan,nan,nan,nan,nan,nan,nan,nan,nan,nan,nan,nan,nan,1.32726e+09,nan,-0.0401426,nan,nan,nan,nan,nan,nan,nan,nan,nan,nan,nan,nan,nan,nan,nan,nan,nan,nan,nan,nan,nan,nan,nan,nan,nan,nan,nan,nan,nan
nan,nan,nan,nan,nan,nan,nan,nan,nan,nan,nan,nan,nan,nan,nan,nan,nan,nan,nan,nan,nan,nan,1.32726e+09,nan,nan,nan,nan,nan,nan,nan,nan,nan,nan,0.00054343,0.000429705,0.000204562,1.32726e+09,0.937,0.6765,-0.0428,1.32726e+09,2.80843,6.4,0.093,nan,nan,nan,nan,nan,nan,nan,nan,nan,nan
nan,nan,nan,nan,nan,nan,nan,nan,nan,nan,nan,nan,nan,nan,nan,nan,nan,nan,nan,nan,nan,nan,1.32726e+09,nan,nan,nan,nan,nan,96.8209,nan,nan,nan,nan,nan,nan,nan,nan,nan,nan,nan,nan,nan,nan,nan,nan,nan,nan,nan,nan,nan,nan,nan,nan,nan
nan,nan,nan,nan,nan,nan,nan,nan,nan,nan,nan,nan,nan,nan,nan,nan,nan,nan,nan,nan,nan,nan,1.32726e+09,nan,nan,nan,nan,nan,nan,nan,nan,nan,nan,0.00050837,0.000448803,0.000213456,1.32726e+09,0.937,0.5781,0.0,1.32726e+09,2.80691,6.552,0.0646,nan,nan,nan,nan,nan,nan,nan,nan,nan,nan
nan,nan,nan,nan,nan,nan,nan,nan,nan,nan,nan,nan,nan,nan,nan,nan,nan,nan,nan,nan,nan,nan,1.32726e+09,nan,nan,nan,nan,nan,nan,nan,nan,nan,nan,0.00050837,0.000429705,0.000209009,1.32726e+09,0.7496,0.5904,-0.0428,1.32726e+09,2.80562,6.714,0.0411,nan,nan,nan,nan,nan,nan,nan,nan,nan,nan
nan,nan,nan,nan,nan,nan,nan,nan,nan,nan,0.216013,nan,nan,nan,nan,nan,3.73675,nan,nan,nan,nan,nan,1.32726e+09,6.79803,-0.0366519,nan,nan,nan,nan,nan,nan,nan,nan,nan,nan,nan,nan,nan,nan,nan,nan,nan,nan,nan,nan,nan,nan,nan,nan,nan,nan,nan,nan,nan
nan,nan,nan,nan,nan,nan,nan,nan,nan,nan,nan,nan,nan,nan,nan,nan,nan,nan,nan,nan,nan,nan,1.32726e+09,nan,nan,nan,nan,nan,nan,nan,nan,nan,nan,0.0005259,0.000420156,0.000204562,1.32726e+09,1.0307,0.6027,-0.0428,1.32726e+09,2.80612,6.913,0.0553,nan,nan,nan,nan,nan,nan,nan,nan,nan,nan
nan,nan,nan,nan,nan,nan,nan,nan,nan,nan,nan,nan,nan,nan,nan,nan,nan,nan,nan,nan,nan,nan,1.32726e+09,nan,nan,nan,nan,nan,nan,nan,nan,nan,nan,0.00050837,0.000439254,0.000209009,1.32726e+09,1.0307,0.5658,-0.0428,1.32726e+09,2.80607,7.074,0.0514,nan,nan,nan,nan,nan,nan,nan,nan,nan,nan
nan,nan,nan,nan,nan,nan,nan,nan,nan,nan,nan,nan,nan,nan,nan,nan,nan,nan,nan,nan,nan,nan,1.32726e+09,nan,nan,nan,nan,nan,nan,nan,nan,nan,nan,0.00050837,0.000448803,0.000200115,1.32726e+09,0.937,0.5289,-0.0428,1.32726e+09,2.80519,7.264,0.0319,nan,nan,nan,nan,nan,nan,nan,nan,nan,nan
nan,nan,nan,nan,nan,nan,nan,nan,nan,nan,nan,nan,nan,nan,nan,nan,nan,nan,nan,nan,nan,nan,1.32726e+09,nan,nan,nan,nan,nan,nan,nan,nan,nan,nan,0.00050837,0.000429705,0.000213456,1.32726e+09,0.8433,0.492,-0.0428,1.32726e+09,2.8038,7.421,0.002,nan,nan,nan,nan,nan,nan,nan,nan,nan,nan
-1.0,nan,nan,nan,nan,nan,nan,nan,0.198156,nan,nan,nan,nan,nan,nan,nan,nan,nan,nan,nan,nan,nan,1.32726e+09,nan,-0.0331613,nan,nan,nan,nan,nan,nan,nan,nan,nan,nan,nan,nan,nan,nan,nan,nan,nan,nan,nan,nan,nan,nan,nan,nan,nan,nan,nan,nan,nan
nan,nan,nan,nan,nan,nan,nan,nan,nan,nan,nan,nan,nan,nan,nan,nan,nan,nan,nan,nan,nan,nan,1.32726e+09,nan,nan,nan,nan,nan,nan,nan,nan,nan,nan,0.0005259,0.000439254,0.000209009,1.32726e+09,1.0307,0.492,0.0,1.32726e+09,2.8019,7.567,-0.0316,nan,nan,nan,nan,nan,nan,nan,nan,nan,nan
nan,nan,nan,nan,nan,nan,nan,nan,nan,nan,nan,nan,nan,nan,nan,nan,nan,nan,nan,nan,nan,nan,1.32726e+09,nan,nan,nan,nan,nan,nan,nan,nan,nan,nan,0.00050837,0.000401058,0.000200115,1.32726e+09,0.937,0.4797,-0.0856,1.32726e+09,2.80149,7.766,-0.0358,nan,nan,nan,nan,nan,nan,nan,nan,nan,nan
nan,nan,nan,nan,nan,nan,nan,nan,nan,nan,0.147954,nan,nan,nan,nan,nan,3.90779,nan,nan,nan,nan,nan,1.32726e+09,7.7432,nan,nan,nan,nan,96.9705,nan,nan,nan,nan,nan,nan,nan,nan,nan,nan,nan,nan,nan,nan,nan,nan,nan,nan,nan,nan,nan,nan,nan,nan,nan
nan,nan,nan,nan,nan,nan,nan,nan,nan,nan,nan,nan,nan,nan,nan,nan,nan,nan,nan,nan,nan,nan,1.32726e+09,nan,nan,nan,nan,nan,nan,nan,nan,nan,nan,0.00054343,0.000420156,0.000217903,1.32726e+09,0.937,0.4797,-0.0856,1.32726e+09,2.80139,7.923,-0.0362,nan,nan,nan,nan,nan,nan,nan,nan,nan,nan
nan,nan,nan,nan,nan,nan,nan,nan,nan,nan,nan,nan,nan,nan,nan,nan,nan,nan,nan,nan,nan,nan,1.32726e+09,nan,-0.0453786,nan,nan,nan,nan,nan,nan,nan,nan,nan,nan,nan,nan,nan,nan,nan,nan,nan,nan,nan,nan,nan,nan,nan,nan,nan,nan,nan,nan,nan
nan,nan,nan,nan,nan,nan,nan,nan,nan,nan,nan,nan,nan,nan,nan,nan,nan,nan,nan,nan,nan,nan,1.32726e+09,nan,nan,nan,nan,nan,nan,nan,nan,nan,nan,0.0005259,0.000429705,0.000209009,1.32726e+09,1.0307,0.4305,-0.0428,1.32726e+09,2.80065,8.086,-0.0498,nan,nan,nan,nan,nan,nan,nan,nan,nan,nan
nan,nan,nan,nan,nan,nan,nan,nan,nan,nan,nan,nan,nan,nan,nan,nan,nan,nan,nan,nan,nan,nan,1.32726e+09,nan,nan,nan,nan,nan,nan,nan,nan,nan,nan,0.00054343,0.000420156,0.000186774,1.32726e+09,0.8433,0.4305,-0.0428,1.32726e+09,2.80005,8.286,-0.0591,nan,nan,nan,nan,nan,nan,nan,nan,nan,nan
nan,nan,nan,nan,nan,nan,nan,nan,nan,nan,nan,nan,nan,nan,nan,nan,nan,nan,nan,nan,nan,nan,1.32726e+09,nan,nan,nan,nan,nan,nan,nan,nan,nan,nan,0.0005259,0.000439254,0.000253479,1.32726e+09,0.7496,0.4305,-0.0428,1.32726e+09,2.79533,8.456,-0.1396,nan,nan,nan,nan,nan,nan,nan,nan,nan,nan
nan,nan,nan,nan,nan,nan,nan,nan,nan,nan,nan,nan,nan,nan,nan,nan,nan,nan,nan,nan,nan,nan,1.32726e+09,nan,nan,nan,nan,nan,nan,nan,nan,nan,nan,0.0005259,0.00047745,0.000209009,1.32726e+09,0.7496,0.3813,-0.0856,1.32726e+09,2.79582,8.66,-0.1345,nan,nan,nan,nan,nan,nan,nan,nan,nan,nan
0.0,nan,nan,nan,nan,nan,nan,nan,0.198156,nan,nan,nan,nan,nan,nan,nan,nan,nan,nan,nan,nan,nan,1.32726e+09,nan,-0.0314159,nan,nan,nan,94.6688,nan,nan,nan,nan,nan,nan,nan,nan,nan,nan,nan,nan,nan,nan,nan,nan,nan,nan,nan,nan,nan,nan,nan,nan,nan
nan,nan,nan,nan,nan,nan,nan,nan,nan,nan,0.192341,nan,nan,nan,nan,nan,3.95317,nan,nan,nan,nan,nan,1.32726e+09,8.70741,nan,nan,nan,nan,nan,nan,nan,nan,nan,nan,nan,nan,nan,nan,nan,nan,nan,nan,nan,nan,nan,nan,nan,nan,nan,nan,nan,nan,nan,nan
nan,nan,nan,nan,nan,nan,nan,nan,nan,nan,nan,nan,nan,nan,nan,nan,nan,nan,nan,nan,nan,nan,1.32726e+09,nan,nan,nan,nan,nan,nan,nan,nan,nan,nan,0.00056096,0.000458352,0.000204562,1.32726e+09,1.1244,0.2214,-0.0856,1.32726e+09,2.78992,8.813,-0.2293,nan,nan,nan,nan,nan,nan,nan,nan,nan,nan
nan,nan,nan,nan,nan,nan,nan,nan,nan,nan,nan,nan,nan,nan,nan,nan,nan,nan,nan,nan,nan,nan,1.32726e+09,nan,nan,nan,nan,nan,nan,nan,nan,nan,nan,0.00066614,0.000525195,0.000342419,1.32726e+09,1.2181,-0.0492,-0.0428,1.32726e+09,2.77108,9.004,-0.6686,nan,nan,nan,nan,nan,nan,nan,nan,nan,nan
nan,nan,nan,nan,nan,nan,nan,nan,nan,nan,nan,nan,nan,nan,nan,nan,nan,nan,nan,nan,nan,nan,1.32726e+09,nan,nan,nan,nan,nan,nan,nan,nan,nan,nan,0.0007012,0.000964449,0.000595898,1.32726e+09,0.8433,0.0984,-0.0856,1.32726e+09,2.78157,9.035,-0.6603,nan,nan,nan,nan,nan,nan,nan,nan,nan,nan
nan,nan,nan,nan,nan,nan,nan,nan,nan,nan,nan,nan,nan,nan,nan,nan,nan,nan,nan,nan,nan,nan,1.32726e+09,nan,-0.0523599,nan,nan,nan,nan,nan,nan,nan,nan,nan,nan,nan,nan,nan,nan,nan,nan,nan,nan,nan,nan,nan,nan,nan,nan,nan,nan,nan,nan,nan
nan,nan,nan,nan,nan,nan,nan,nan,nan,nan,nan,nan,nan,nan,nan,nan,nan,nan,nan,nan,nan,nan,1.32726e+09,nan,nan,nan,nan,nan,nan,nan,nan,nan,nan,0.00077132,0.000849861,0.000302396,1.32726e+09,1.2181,0.0615,-0.0856,1.32726e+09,2.78573,9.054,-0.6645,nan,nan,nan,nan,nan,nan,nan,nan,nan,nan
nan,nan,nan,nan,nan,nan,nan,nan,nan,nan,nan,nan,nan,nan,nan,nan,nan,nan,nan,nan,nan,nan,1.32726e+09,nan,nan,nan,nan,nan,nan,nan,nan,nan,nan,0.00063108,0.000467901,0.000280161,1.32726e+09,1.1244,0.0369,-0.1284,1.32726e+09,2.7863,9.062,-0.6585,nan,nan,nan,nan,nan,nan,nan,nan,nan,nan
nan,nan,nan,nan,nan,nan,nan,nan,nan,nan,nan,nan,nan,nan,nan,nan,nan,nan,nan,nan,nan,nan,1.32726e+09,nan,nan,nan,nan,nan,nan,nan,nan,nan,nan,0.00059602,0.000486999,0.000240138,1.32726e+09,1.1244,0.0369,-0.0856,1.32726e+09,2.78641,9.051,-0.653,nan,nan,nan,nan,nan,nan,nan,nan,nan,nan
nan,nan,nan,nan,nan,nan,nan,nan,nan,nan,-0.429438,nan,nan,nan,nan,nan,4.4855,nan,nan,nan,nan,nan,1.32726e+09,8.88536,nan,nan,nan,nan,nan,nan,nan,nan,nan,nan,nan,nan,nan,nan,nan,nan,nan,nan,nan,nan,nan,nan,nan,nan,nan,nan,nan,nan,nan,nan
nan,nan,nan,nan,nan,nan,nan,nan,nan,nan,nan,nan,nan,nan,nan,nan,nan,nan,nan,nan,nan,nan,1.32726e+09,nan,nan,nan,nan,nan,nan,nan,nan,nan,nan,0.00068367,0.000534744,0.000297949,1.32726e+09,1.1244,0.0984,-0.0428,1.32726e+09,2.78569,9.043,-0.6628,nan,nan,nan,nan,nan,nan,nan,nan,nan,nan
0.0,nan,nan,nan,nan,nan,nan,nan,nan,0.0,nan,nan,nan,nan,nan,nan,nan,nan,2.49997,-1.0,nan,nan,1.32726e+09,nan,nan,nan,5.8276,-1.0,nan,nan,nan,nan,nan,nan,nan,nan,nan,nan,nan,nan,nan,nan,nan,nan,nan,nan,nan,nan,nan,nan,nan,nan,402.0,nan
nan,-213.0,3.90206,nan,nan,nan,nan,0.28294,nan,nan,nan,nan,nan,nan,nan,nan,nan,-6742.59,nan,nan,-6910.8,nan,1.32726e+09,nan,nan,nan,nan,nan,nan,nan,nan,nan,nan,nan,nan,nan,nan,nan,nan,nan,nan,nan,nan,nan,nan,nan,nan,nan,nan,nan,nan,nan,nan,nan
nan,nan,nan,nan,nan,nan,nan,nan,nan,nan,nan,nan,nan,nan,nan,nan,nan,nan,nan,nan,nan,nan,1.32726e+09,nan,nan,nan,nan,nan,nan,nan,nan,nan,nan,0.0007012,0.000639783,0.000333525,1.32726e+09,1.1244,0.0369,-0.0856,1.32726e+09,2.78491,9.042,-0.6621,nan,nan,nan,nan,nan,nan,nan,nan,nan,nan
nan,nan,nan,nan,nan,nan,nan,nan,nan,nan,nan,nan,nan,nan,nan,nan,nan,nan,nan,nan,nan,nan,1.32726e+09,nan,nan,nan,nan,nan,nan,nan,nan,nan,nan,0.0007012,0.000515646,0.000613686,1.32726e+09,1.1244,0.0369,-0.0856,1.32726e+09,2.78354,9.04,-0.6595,nan,nan,nan,nan,nan,nan,nan,nan,nan,nan
nan,nan,nan,nan,nan,nan,nan,nan,nan,nan,nan,nan,nan,nan,nan,nan,nan,nan,nan,nan,nan,nan,1.32726e+09,nan,nan,nan,nan,nan,nan,nan,nan,nan,nan,0.00068367,0.000601587,0.00035576,1.32726e+09,0.937,0.0492,0.0,1.32726e+09,2.78237,9.05,-0.662,nan,nan,nan,nan,nan,nan,nan,nan,nan,nan
nan,nan,nan,nan,nan,nan,nan,nan,0.396381,nan,nan,nan,nan,nan,nan,nan,nan,nan,nan,nan,nan,nan,1.32726e+09,nan,-0.0488692,nan,nan,nan,nan,nan,nan,nan,nan,nan,nan,nan,nan,nan,nan,nan,nan,nan,nan,nan,nan,nan,nan,nan,nan,nan,nan,nan,nan,nan
nan,nan,nan,nan,nan,nan,nan,nan,nan,nan,nan,nan,nan,nan,nan,nan,nan,nan,nan,nan,nan,nan,1.32726e+09,nan,nan,nan,nan,nan,nan,nan,nan,nan,nan,0.00061355,0.000649332,0.000346866,1.32726e+09,1.2181,0.0738,-0.0856,1.32726e+09,2.78127,9.039,-0.6628,nan,nan,nan,nan,nan,nan,nan,nan,nan,nan
nan,nan,nan,nan,nan,nan,nan,nan,nan,nan,-0.577362,nan,nan,nan,nan,nan,4.48201,nan,nan,nan,nan,nan,1.32726e+09,8.8986,nan,nan,nan,nan,nan,nan,nan,nan,nan,nan,nan,nan,nan,nan,nan,nan,nan,nan,nan,nan,nan,nan,nan,nan,nan,nan,nan,nan,nan,nan
nan,nan,nan,nan,nan,nan,nan,nan,nan,nan,nan,nan,nan,nan,nan,nan,nan,nan,nan,nan,nan,nan,1.32726e+09,nan,nan,nan,nan,nan,nan,nan,nan,nan,nan,0.00064861,0.000611136,0.000346866,1.32726e+09,1.2181,0.0615,-0.0856,1.32726e+09,2.78036,9.049,-0.6581,nan,nan,nan,nan,nan,nan,nan,nan,nan,nan
nan,nan,nan,nan,nan,nan,nan,nan,nan,nan,nan,nan,nan,nan,nan,nan,nan,nan,nan,nan,nan,nan,1.32726e+09,nan,nan,nan,nan,nan,nan,nan,nan,nan,nan,0.00073626,0.00057294,0.000426912,1.32726e+09,1.1244,0.0615,-0.0428,1.32726e+09,2.77917,9.049,-0.66,nan,nan,nan,nan,nan,nan,nan,nan,nan,nan
nan,nan,nan,nan,nan,nan,nan,nan,nan,nan,nan,nan,nan,nan,nan,nan,nan,nan,nan,nan,nan,nan,1.32726e+09,nan,nan,nan,nan,nan,nan,nan,nan,nan,nan,0.00063108,0.000553842,0.000440253,1.32726e+09,1.3118,0.0369,-0.0856,1.32726e+09,2.77827,9.025,-0.6555,nan,nan,nan,nan,nan,nan,nan,nan,nan,nan
0.0,nan,nan,nan,nan,nan,nan,nan,nan,nan,nan,nan,nan,nan,nan,nan,nan,nan,nan,nan,nan,nan,1.32726e+09,nan,nan,nan,nan,nan,nan,nan,nan,nan,nan,nan,nan,nan,nan,nan,nan,nan,nan,nan,nan,nan,nan,nan,nan,nan,nan,nan,nan,nan,nan,nan
nan,nan,nan,nan,nan,nan,nan,nan,nan,nan,nan,nan,nan,nan,nan,nan,nan,nan,nan,nan,nan,nan,1.32726e+09,nan,nan,nan,nan,nan,nan,nan,nan,nan,nan,0.00068367,0.000563391,0.000502511,1.32726e+09,1.1244,0.0738,-0.0856,1.32726e+09,2.7773,9.038,-0.6687,nan,nan,nan,nan,nan,nan,nan,nan,nan,nan
nan,nan,nan,nan,nan,nan,nan,nan,nan,nan,nan,nan,nan,nan,nan,nan,nan,nan,nan,nan,nan,nan,1.32726e+09,nan,nan,nan,nan,nan,nan,nan,nan,nan,nan,0.00075379,0.000611136,0.000333525,1.32726e+09,1.0307,0.0861,-0.0856,1.32726e+09,2.7766,9.039,-0.669,nan,nan,nan,nan,nan,nan,nan,nan,nan,nan
nan,nan,nan,nan,nan,nan,nan,nan,nan,nan,nan,nan,nan,nan,nan,nan,nan,nan,nan,nan,nan,nan,1.32726e+09,nan,nan,nan,nan,nan,nan,nan,nan,nan,nan,0.00064861,0.000592038,0.000475829,1.32726e+09,1.2181,0.0861,-0.0856,1.32726e+09,2.77567,9.038,-0.6654,nan,nan,nan,nan,nan,nan,nan,nan,nan,nan
nan,nan,nan,nan,nan,nan,nan,nan,nan,nan,-0.578555,nan,nan,nan,nan,nan,4.50644,nan,nan,nan,nan,nan,1.32726e+09,8.8626,nan,nan,nan,nan,nan,nan,nan,nan,nan,nan,nan,nan,nan,nan,nan,nan,nan,nan,nan,nan,nan,nan,nan,nan,nan,nan,nan,nan,nan,nan
nan,nan,nan,nan,nan,nan,nan,nan,nan,nan,nan,nan,nan,nan,nan,nan,nan,nan,nan,nan,nan,nan,1.32726e+09,nan,nan,nan,nan,nan,nan,nan,nan,nan,nan,0.00068367,0.000544293,0.000329078,1.32726e+09,1.2181,0.0615,-0.0856,1.32726e+09,2.77496,9.04,-0.6722,nan,nan,nan,nan,nan,nan,nan,nan,nan,nan
nan,nan,nan,nan,nan,nan,nan,nan,nan,nan,nan,nan,nan,nan,nan,nan,nan,nan,nan,nan,nan,nan,1.32726e+09,nan,nan,nan,nan,nan,nan,nan,nan,nan,nan,0.00084144,0.000525195,0.000337972,1.32726e+09,0.8433,0.0492,-0.0428,1.32726e+09,2.77414,9.031,-0.6722,nan,nan,nan,nan,nan,nan,nan,nan,nan,nan
nan,nan,nan,nan,nan,nan,nan,nan,nan,nan,nan,nan,nan,nan,nan,nan,nan,nan,nan,nan,nan,nan,1.32726e+09,nan,nan,nan,nan,nan,nan,nan,nan,nan,nan,0.00071873,0.000534744,0.00031129,1.32726e+09,1.2181,0.0738,-0.0428,1.32726e+09,2.7733,9.035,-0.6727,nan,nan,nan,nan,nan,nan,nan,nan,nan,nan
nan,nan,nan,nan,nan,nan,nan,nan,nan,nan,nan,nan,nan,nan,nan,nan,nan,nan,nan,nan,nan,nan,1.32726e+09,nan,nan,nan,nan,nan,nan,nan,nan,nan,nan,0.00073626,0.000592038,0.000240138,1.32726e+09,1.2181,0.1353,-0.0428,1.32726e+09,2.77271,9.04,-0.6726,nan,nan,nan,nan,nan,nan,nan,nan,nan,nan
0.0,nan,nan,nan,nan,nan,nan,nan,nan,nan,nan,nan,nan,nan,nan,nan,nan,nan,nan,nan,nan,nan,1.32726e+09,nan,nan,nan,nan,nan,nan,nan,nan,nan,nan,nan,nan,nan,nan,nan,nan,nan,nan,nan,nan,nan,nan,nan,nan,nan,nan,nan,nan,nan,nan,nan
nan,nan,nan,nan,nan,nan,nan,nan,nan,nan,nan,nan,nan,nan,nan,nan,nan,nan,nan,nan,nan,nan,1.32726e+09,nan,nan,nan,nan,nan,nan,nan,nan,nan,nan,0.00066614,0.000544293,0.000329078,1.32726e+09,1.2181,0.1722,-0.0856,1.32726e+09,2.77228,9.041,-0.6713,nan,nan,nan,nan,nan,nan,nan,nan,nan,nan
nan,nan,nan,nan,nan,nan,nan,nan,nan,nan,nan,nan,nan,nan,nan,nan,nan,nan,nan,nan,nan,nan,1.32726e+09,nan,nan,nan,nan,nan,nan,nan,nan,nan,nan,0.00054343,0.000544293,0.000289055,1.32726e+09,0.937,0.0492,-0.0856,1.32726e+09,2.77167,9.026,-0.6716,nan,nan,nan,nan,nan,nan,nan,nan,nan,nan
nan,nan,nan,nan,nan,nan,nan,nan,nan,nan,-0.578555,nan,nan,nan,nan,nan,4.60243,nan,nan,nan,nan,nan,1.32726e+09,8.85887,nan,nan,nan,nan,nan,nan,nan,nan,nan,nan,nan,nan,nan,nan,nan,nan,nan,nan,nan,nan,nan,nan,nan,nan,nan,nan,nan,nan,nan,nan
nan,nan,nan,nan,nan,nan,nan,nan,nan,nan,nan,nan,nan,nan,nan,nan,nan,nan,nan,nan,nan,nan,1.32726e+09,nan,nan,nan,nan,nan,nan,nan,nan,nan,nan,0.00061355,0.000486999,0.000262373,1.32726e+09,1.1244,0.0246,-0.0856,1.32726e+09,2.77115,9.05,-0.6733,nan,nan,nan,nan,nan,nan,nan,nan,nan,nan
nan,nan,nan,nan,nan,nan,nan,nan,nan,nan,nan,nan,nan,nan,nan,nan,nan,nan,nan,nan,nan,nan,1.32726e+09,nan,nan,nan,nan,nan,nan,nan,nan,nan,nan,0.00084144,0.000553842,0.000315737,1.32726e+09,1.0307,0.0123,-0.0428,1.32726e+09,2.77045,9.042,-0.6759,nan,nan,nan,nan,nan,nan,nan,nan,nan,nan
nan,nan,nan,nan,nan,nan,nan,nan,nan,nan,nan,nan,nan,nan,nan,nan,nan,nan,nan,nan,nan,nan,1.32726e+09,nan,nan,nan,nan,nan,nan,nan,nan,nan,nan,0.00063108,0.000506097,0.000346866,1.32726e+09,1.1244,0.0738,-0.0428,1.32726e+09,2.77,9.033,-0.6749,nan,nan,nan,nan,nan,nan,nan,nan,nan,nan
nan,nan,nan,nan,nan,nan,nan,nan,nan,nan,nan,nan,nan,nan,nan,nan,nan,nan,nan,nan,nan,nan,1.32726e+09,nan,nan,nan,nan,nan,nan,nan,nan,nan,nan,0.00064861,0.000544293,0.000231244,1.32726e+09,1.2181,0.0492,-0.0428,1.32726e+09,2.76948,9.039,-0.6768,nan,nan,nan,nan,nan,nan,nan,nan,nan,nan
nan,nan,nan,nan,nan,nan,nan,nan,nan,nan,nan,nan,nan,nan,nan,nan,nan,nan,nan,nan,nan,nan,1.32726e+09,nan,nan,nan,nan,nan,nan,nan,nan,nan,nan,0.00073626,0.000515646,0.000302396,1.32726e+09,1.1244,0.0492,-0.0856,1.32726e+09,2.76906,9.039,-0.6786,nan,nan,nan,nan,nan,nan,nan,nan,nan,nan
0.0,nan,nan,nan,nan,nan,nan,nan,0.608436,nan,-0.578555,nan,nan,nan,nan,nan,4.73159,nan,nan,nan,nan,nan,1.32726e+09,8.8895,-0.0471239,nan,nan,nan,nan,nan,nan,nan,nan,nan,nan,nan,nan,nan,nan,nan,nan,nan,nan,nan,nan,nan,nan,nan,nan,nan,nan,nan,nan,nan
nan,nan,nan,nan,nan,nan,nan,nan,nan,nan,nan,nan,nan,nan,nan,nan,nan,nan,nan,nan,nan,nan,1.32726e+09,nan,nan,nan,nan,nan,nan,nan,nan,nan,nan,0.00084144,0.000458352,0.00031129,1.32726e+09,1.1244,0.1107,-0.0428,1.32726e+09,2.7688,9.042,-0.6776,nan,nan,nan,nan,nan,nan,nan,nan,nan,nan
nan,nan,nan,nan,nan,nan,nan,nan,nan,nan,nan,nan,nan,nan,nan,nan,nan,nan,nan,nan,nan,nan,1.32726e+09,nan,nan,nan,nan,nan,nan,nan,nan,nan,nan,0.00071873,0.000544293,0.000346866,1.32726e+09,0.937,0.0615,-0.0428,1.32726e+09,2.76845,9.03,-0.678,nan,nan,nan,nan,nan,nan,nan,nan,nan,nan
nan,nan,nan,nan,nan,nan,nan,nan,nan,nan,nan,nan,nan,nan,nan,nan,nan,nan,nan,nan,nan,nan,1.32726e+09,nan,nan,nan,nan,nan,nan,nan,nan,nan,nan,0.0007012,0.000706626,0.000315737,1.32726e+09,1.1244,0.0492,-0.0428,1.32726e+09,2.76807,9.042,-0.6773,nan,nan,nan,nan,nan,nan,nan,nan,nan,nan
nan,nan,nan,nan,nan,nan,nan,nan,nan,nan,nan,nan,nan,nan,nan,nan,nan,nan,nan,nan,nan,nan,1.32726e+09,nan,nan,nan,nan,nan,nan,nan,nan,nan,nan,0.00071873,0.000506097,0.000324631,1.32726e+09,1.1244,0.0492,-0.0428,1.32726e+09,2.76793,9.042,-0.6746,nan,nan,nan,nan,nan,nan,nan,nan,nan,nan
nan,nan,nan,nan,nan,nan,nan,nan,nan,nan,nan,nan,nan,nan,nan,nan,nan,nan,nan,nan,nan,nan,1.32726e+09,nan,nan,nan,nan,nan,nan,nan,nan,nan,nan,0.00063108,0.000544293,0.000342419,1.32726e+09,1.1244,0.0861,-0.0856,1.32726e+09,2.76757,9.037,-0.6745,nan,nan,nan,nan,nan,nan,nan,nan,nan,nan
nan,nan,nan,nan,nan,nan,nan,nan,nan,nan,nan,nan,nan,nan,nan,nan,nan,nan,nan,nan,nan,nan,1.32726e+09,nan,nan,nan,nan,nan,nan,nan,nan,nan,nan,0.00071873,0.000448803,0.000551428,1.32726e+09,0.937,0.0738,-0.0856,1.32726e+09,2.76717,9.046,-0.6743,nan,nan,nan,nan,nan,nan,nan,nan,nan,nan
nan,nan,nan,nan,nan,nan,nan,nan,nan,nan,-0.578555,nan,nan,nan,nan,nan,4.94452,nan,nan,nan,nan,nan,1.32726e+09,8.86467,nan,nan,nan,nan,nan,nan,nan,nan,nan,nan,nan,nan,nan,nan,nan,nan,nan,nan,nan,nan,nan,nan,nan,nan,nan,nan,nan,nan,nan,nan
nan,nan,nan,nan,nan,nan,nan,nan,nan,nan,nan,nan,nan,nan,nan,nan,nan,nan,nan,nan,nan,nan,1.32726e+09,nan,nan,nan,nan,nan,nan,nan,nan,nan,nan,0.00064861,0.000515646,0.000329078,1.32726e+09,1.1244,0.0738,-0.0856,1.32726e+09,2.76684,9.044,-0.6734,nan,nan,nan,nan,nan,nan,nan,nan,nan,nan
nan,nan,nan,nan,nan,nan,nan,nan,nan,nan,nan,nan,nan,nan,nan,nan,nan,nan,nan,nan,nan,nan,1.32726e+09,nan,nan,nan,nan,nan,nan,nan,nan,nan,nan,0.00071873,0.000496548,0.000373548,1.32726e+09,1.1244,0.0615,-0.0428,1.32726e+09,2.76677,9.031,-0.6732,nan,nan,nan,nan,nan,nan,nan,nan,nan,nan
0.0,nan,nan,nan,nan,nan,nan,nan,nan,nan,nan,nan,nan,nan,nan,nan,nan,nan,nan,nan,nan,nan,1.32726e+09,nan,nan,nan,nan,nan,nan,nan,nan,nan,nan,nan,nan,nan,nan,nan,nan,nan,nan,nan,nan,nan,nan,nan,nan,nan,nan,nan,nan,nan,nan,nan
nan,nan,nan,nan,nan,nan,nan,nan,nan,nan,nan,nan,nan,nan,nan,nan,nan,nan,nan,nan,nan,nan,1.32726e+09,nan,nan,nan,nan,nan,nan,nan,nan,nan,nan,0.00066614,0.000592038,0.000382442,1.32726e+09,1.0307,0.0984,-0.0428,1.32726e+09,2.76653,9.039,-0.6729,nan,nan,nan,nan,nan,nan,nan,nan,nan,nan
nan,nan,nan,nan,nan,nan,nan,nan,0.607668,nan,nan,nan,nan,nan,nan,nan,nan,nan,nan,nan,nan,nan,1.32726e+09,nan,-0.0366519,nan,nan,nan,nan,nan,nan,nan,nan,nan,nan,nan,nan,nan,nan,nan,nan,nan,nan,nan,nan,nan,nan,nan,nan,nan,nan,nan,nan,nan
nan,nan,nan,nan,nan,nan,nan,nan,nan,nan,nan,nan,nan,nan,nan,nan,nan,nan,nan,nan,nan,nan,1.32726e+09,nan,nan,nan,nan,nan,nan,nan,nan,nan,nan,0.00057849,0.000496548,0.000302396,1.32726e+09,1.1244,0.0369,-0.0428,1.32726e+09,2.76632,9.052,-0.6718,nan,nan,nan,nan,nan,nan,nan,nan,nan,nan
nan,nan,nan,nan,nan,nan,nan,nan,nan,nan,nan,nan,nan,nan,nan,nan,nan,nan,nan,nan,nan,nan,1.32726e+09,nan,nan,nan,nan,nan,nan,nan,nan,nan,nan,0.00061355,0.000458352,0.000297949,1.32726e+09,1.1244,0.0615,-0.0856,1.32726e+09,2.7662,9.04,-0.6713,nan,nan,nan,nan,nan,nan,nan,nan,nan,nan
nan,nan,nan,nan,nan,nan,nan,nan,nan,nan,nan,nan,nan,nan,nan,nan,nan,nan,nan,nan,nan,nan,1.32726e+09,nan,nan,nan,nan,nan,nan,nan,nan,nan,nan,0.00071873,0.000525195,0.000297949,1.32726e+09,1.0307,0.0369,-0.0856,1.32726e+09,2.76606,9.041,-0.6713,nan,nan,nan,nan,nan,nan,nan,nan,nan,nan
nan,nan,nan,nan,nan,nan,nan,nan,nan,nan,-0.578555,nan,nan,nan,nan,nan,5.01259,nan,nan,nan,nan,nan,1.32726e+09,8.86839,nan,nan,nan,nan,nan,nan,nan,nan,nan,nan,nan,nan,nan,nan,nan,nan,nan,nan,nan,nan,nan,nan,nan,nan,nan,nan,nan,nan,nan,nan
nan,nan,nan,nan,nan,nan,nan,nan,nan,nan,nan,nan,nan,nan,nan,nan,nan,nan,nan,nan,nan,nan,1.32726e+09,nan,nan,nan,nan,nan,nan,nan,nan,nan,nan,0.00071873,0.000582489,0.000698179,1.32726e+09,1.0307,0.0615,-0.0856,1.32726e+09,2.76588,9.041,-0.672,nan,nan,nan,nan,nan,nan,nan,nan,nan,nan
nan,nan,nan,nan,nan,nan,nan,nan,nan,nan,nan,nan,nan,nan,nan,nan,nan,nan,nan,nan,nan,nan,1.32726e+09,nan,nan,nan,nan,nan,nan,nan,nan,nan,nan,0.00061355,0.000525195,0.000422465,1.32726e+09,1.4055,0.1476,-0.0856,1.32726e+09,2.76581,9.044,-0.671,nan,nan,nan,nan,nan,nan,nan,nan,nan,nan
nan,nan,nan,nan,nan,nan,nan,nan,nan,nan,nan,nan,nan,nan,nan,nan,nan,nan,nan,nan,nan,nan,1.32726e+09,nan,nan,nan,nan,nan,nan,nan,nan,nan,nan,0.00073626,0.000592038,0.000542534,1.32726e+09,1.2181,0.0369,-0.0856,1.32726e+09,2.76574,9.045,-0.6713,nan,nan,nan,nan,nan,nan,nan,nan,nan,nan
0.0,nan,nan,nan,nan,nan,nan,nan,nan,nan,nan,nan,nan,nan,nan,nan,nan,nan,nan,nan,nan,nan,1.32726e+09,nan,nan,nan,nan,nan,nan,nan,nan,nan,nan,nan,nan,nan,nan,nan,nan,nan,nan,nan,nan,nan,nan,nan,nan,nan,nan,nan,nan,nan,nan,nan
nan,nan,nan,nan,nan,nan,nan,nan,nan,nan,nan,nan,nan,nan,nan,nan,nan,nan,nan,nan,nan,nan,1.32726e+09,nan,nan,nan,nan,nan,nan,nan,nan,nan,nan,0.00078885,0.000534744,0.000475829,1.32726e+09,1.1244,0.0246,-0.0856,1.32726e+09,2.76564,9.048,-0.6711,nan,nan,nan,nan,nan,nan,nan,nan,nan,nan
nan,nan,nan,nan,nan,nan,nan,nan,nan,nan,nan,nan,nan,nan,nan,nan,nan,nan,nan,nan,nan,nan,1.32726e+09,nan,nan,nan,nan,nan,nan,nan,nan,nan,nan,0.00064861,0.00057294,0.000329078,1.32726e+09,1.2181,0.0369,-0.0428,1.32726e+09,2.76557,9.045,-0.6728,nan,nan,nan,nan,nan,nan,nan,nan,nan,nan
nan,nan,nan,nan,nan,nan,nan,nan,nan,nan,-0.579748,nan,nan,nan,nan,nan,4.90263,nan,nan,nan,nan,nan,1.32726e+09,8.89281,nan,nan,nan,nan,nan,nan,nan,nan,nan,nan,nan,nan,nan,nan,nan,nan,nan,nan,nan,nan,nan,nan,nan,nan,nan,nan,nan,nan,nan,nan
nan,nan,nan,nan,nan,nan,nan,nan,nan,nan,nan,nan,nan,nan,nan,nan,nan,nan,nan,nan,nan,nan,1.32726e+09,nan,nan,nan,nan,nan,nan,nan,nan,nan,nan,0.00077132,0.000601587,0.000631474,1.32726e+09,1.2181,0.0369,-0.0428,1.32726e+09,2.76548,9.083,-0.675,nan,nan,nan,nan,nan,nan,nan,nan,nan,nan
nan,nan,nan,nan,nan,nan,nan,nan,0.605363,nan,nan,nan,nan,nan,nan,nan,nan,nan,nan,nan,nan,nan,1.32726e+09,nan,-0.0331613,nan,nan,nan,nan,nan,nan,nan,nan,nan,nan,nan,nan,nan,nan,nan,nan,nan,nan,nan,nan,nan,nan,nan,nan,nan,nan,nan,nan,nan
nan,nan,nan,nan,nan,nan,nan,nan,nan,nan,nan,nan,nan,nan,nan,nan,nan,nan,nan,nan,nan,nan,1.32726e+09,nan,nan,nan,nan,nan,nan,nan,nan,nan,nan,0.00064861,0.000630234,0.000364654,1.32726e+09,1.1244,0.0246,-0.0856,1.32726e+09,2.76529,9.163,-0.6825,nan,nan,nan,nan,nan,nan,nan,nan,nan,nan
nan,nan,nan,nan,nan,nan,nan,nan,nan,nan,nan,nan,nan,nan,nan,nan,nan,nan,nan,nan,nan,nan,1.32726e+09,nan,nan,nan,nan,nan,nan,nan,nan,nan,nan,0.00068367,0.000601587,0.000733755,1.32726e+09,1.3118,0.0123,-0.0856,1.32726e+09,2.76526,9.258,-0.6845,nan,nan,nan,nan,nan,nan,nan,nan,nan,nan
nan,nan,nan,nan,nan,nan,nan,nan,nan,nan,nan,nan,nan,nan,nan,nan,nan,nan,nan,nan,nan,nan,1.32726e+09,nan,nan,nan,nan,nan,nan,nan,nan,nan,nan,0.00075379,0.000620685,0.00035576,1.32726e+09,1.2181,0.0,-0.0856,1.32726e+09,2.76522,9.311,-0.6894,nan,nan,nan,nan,nan,nan,nan,nan,nan,nan
nan,-213.0,3.90018,nan,nan,nan,nan,0.26148,nan,nan,nan,nan,nan,nan,nan,nan,nan,-6742.59,nan,nan,-6910.8,nan,1.32726e+09,nan,0.0610865,nan,nan,nan,nan,nan,nan,nan,nan,nan,nan,nan,nan,nan,nan,nan,nan,nan,nan,nan,nan,nan,nan,nan,nan,nan,nan,nan,nan,nan
nan,nan,nan,nan,nan,nan,nan,nan,nan,nan,nan,nan,nan,nan,nan,nan,nan,nan,nan,nan,nan,nan,1.32726e+09,nan,nan,nan,nan,nan,nan,nan,nan,nan,nan,0.00099921,0.00263552,0.0004447,1.32726e+09,1.5929,-0.0123,-0.0856,1.32726e+09,2.76543,9.377,-0.6934,nan,nan,nan,nan,nan,nan,nan,nan,nan,nan
0.0,nan,nan,nan,nan,nan,nan,nan,nan,nan,nan,nan,nan,nan,nan,nan,nan,nan,nan,nan,nan,nan,1.32726e+09,nan,nan,nan,nan,nan,nan,nan,nan,nan,nan,nan,nan,nan,nan,nan,nan,nan,nan,nan,nan,nan,nan,nan,nan,nan,nan,nan,nan,nan,nan,nan
nan,nan,nan,nan,nan,nan,nan,nan,nan,nan,nan,nan,nan,nan,nan,nan,nan,nan,nan,nan,nan,nan,1.32726e+09,nan,nan,nan,nan,nan,nan,nan,nan,nan,nan,0.00073626,0.000725724,0.000627027,1.32726e+09,0.2811,0.0615,-0.0856,1.32726e+09,2.76517,9.411,-0.6971,nan,nan,nan,nan,nan,nan,nan,nan,nan,nan
nan,nan,nan,nan,nan,nan,nan,nan,nan,nan,-0.58094,nan,nan,nan,nan,nan,5.65312,nan,nan,nan,nan,nan,1.32726e+09,9.24497,nan,nan,nan,nan,nan,nan,nan,nan,nan,nan,nan,nan,nan,nan,nan,nan,nan,nan,nan,nan,nan,nan,nan,nan,nan,nan,nan,nan,nan,nan
nan,nan,nan,nan,nan,nan,nan,nan,nan,nan,nan,nan,nan,nan,nan,nan,nan,nan,nan,nan,nan,nan,1.32726e+09,nan,nan,nan,nan,nan,nan,nan,nan,nan,nan,0.00066614,0.000506097,0.000404677,1.32726e+09,0.6559,-0.0246,-0.0428,1.32726e+09,2.76507,9.417,-0.6992,nan,nan,nan,nan,nan,nan,nan,nan,nan,nan
nan,nan,nan,nan,nan,nan,nan,nan,nan,nan,nan,nan,nan,nan,nan,nan,nan,nan,nan,nan,nan,nan,1.32726e+09,nan,nan,nan,nan,nan,nan,nan,nan,nan,nan,0.00082391,0.000534744,0.00040023,1.32726e+09,0.937,0.0123,-0.0856,1.32726e+09,2.76495,9.415,-0.6981,nan,nan,nan,nan,nan,nan,nan,nan,nan,nan
nan,nan,nan,nan,nan,nan,nan,nan,nan,nan,nan,nan,nan,nan,nan,nan,nan,nan,nan,nan,nan,nan,1.32726e+09,nan,nan,nan,nan,nan,nan,nan,nan,nan,nan,0.00064861,0.000544293,0.000315737,1.32726e+09,0.2811,0.0492,-0.0428,1.32726e+09,2.76491,9.414,-0.696,nan,nan,nan,nan,nan,nan,nan,nan,nan,nan
nan,nan,nan,nan,nan,nan,nan,nan,nan,nan,nan,nan,nan,nan,nan,nan,nan,nan,nan,nan,nan,nan,1.32726e+09,nan,nan,nan,nan,nan,nan,nan,nan,nan,nan,0.00057849,0.00057294,0.000346866,1.32726e+09,1.5929,-0.0246,-0.0856,1.32726e+09,2.76469,9.409,-0.6957,nan,nan,nan,nan,nan,nan,nan,nan,nan,nan
nan,nan,nan,nan,nan,nan,nan,nan,0.604338,nan,nan,nan,nan,nan,nan,nan,nan,nan,nan,nan,nan,nan,1.32726e+09,nan,-0.0471239,nan,nan,nan,nan,nan,nan,nan,nan,nan,nan,nan,nan,nan,nan,nan,nan,nan,nan,nan,nan,nan,nan,nan,nan,nan,nan,nan,nan,nan
nan,nan,nan,nan,nan,nan,nan,nan,nan,nan,nan,nan,nan,nan,nan,nan,nan,nan,nan,nan,nan,nan,1.32726e+09,nan,nan,nan,nan,nan,nan,nan,nan,nan,nan,0.00066614,0.000496548,0.000275714,1.32726e+09,1.6866,-0.0492,-0.0856,1.32726e+09,2.76455,9.416,-0.6954,nan,nan,nan,nan,nan,nan,nan,nan,nan,nan
nan,nan,nan,nan,nan,nan,nan,nan,nan,nan,-0.579748,nan,nan,nan,nan,nan,5.5484,nan,nan,nan,nan,nan,1.32726e+09,9.2367,nan,nan,nan,nan,nan,nan,nan,nan,nan,nan,nan,nan,nan,nan,nan,nan,nan,nan,nan,nan,nan,nan,nan,nan,nan,nan,nan,nan,nan,nan
nan,nan,nan,nan,nan,nan,nan,nan,nan,nan,nan,nan,nan,nan,nan,nan,nan,nan,nan,nan,nan,nan,1.32726e+09,nan,nan,nan,nan,nan,nan,nan,nan,nan,nan,0.00068367,0.000830763,0.000329078,1.32726e+09,0.937,0.0738,-0.0428,1.32726e+09,2.76443,9.41,-0.695,nan,nan,nan,nan,nan,nan,nan,nan,nan,nan
0.0,nan,nan,nan,nan,nan,nan,nan,nan,nan,nan,nan,nan,nan,nan,nan,nan,nan,nan,nan,nan,nan,1.32726e+09,nan,nan,nan,nan,nan,nan,nan,nan,nan,nan,nan,nan,nan,nan,nan,nan,nan,nan,nan,nan,nan,nan,nan,nan,nan,nan,nan,nan,nan,nan,nan
nan,nan,nan,nan,nan,nan,nan,nan,nan,nan,nan,nan,nan,nan,nan,nan,nan,nan,nan,nan,nan,nan,1.32726e+09,nan,nan,nan,nan,nan,nan,nan,nan,nan,nan,0.00082391,0.000725724,0.00035576,1.32726e+09,0.7496,0.0123,-0.0856,1.32726e+09,2.76432,9.411,-0.6949,nan,nan,nan,nan,nan,nan,nan,nan,nan,nan
nan,nan,nan,nan,nan,nan,nan,nan,nan,nan,nan,nan,nan,nan,nan,nan,nan,nan,nan,nan,nan,nan,1.32726e+09,nan,nan,nan,nan,nan,nan,nan,nan,nan,nan,0.00064861,0.000563391,0.000471382,1.32726e+09,1.2181,0.0246,-0.0856,1.32726e+09,2.76422,9.416,-0.696,nan,nan,nan,nan,nan,nan,nan,nan,nan,nan
nan,nan,nan,nan,nan,nan,nan,nan,nan,nan,nan,nan,nan,nan,nan,nan,nan,nan,nan,nan,nan,nan,1.32726e+09,nan,nan,nan,nan,nan,nan,nan,nan,nan,nan,0.00059602,0.000849861,0.000391336,1.32726e+09,1.7803,-0.1845,-0.0856,1.32726e+09,2.76408,9.42,-0.6974,nan,nan,nan,nan,nan,nan,nan,nan,nan,nan
nan,nan,nan,nan,nan,nan,nan,nan,nan,nan,nan,nan,nan,nan,nan,nan,nan,nan,nan,nan,nan,nan,1.32726e+09,nan,nan,nan,nan,nan,nan,nan,nan,nan,nan,0.00073626,0.000506097,0.000324631,1.32726e+09,2.0614,-0.0615,-0.0428,1.32726e+09,2.76399,9.409,-0.6974,nan,nan,nan,nan,nan,nan,nan,nan,nan,nan
nan,nan,nan,nan,nan,nan,nan,nan,nan,nan,nan,nan,nan,nan,nan,nan,nan,nan,nan,nan,nan,nan,1.32726e+09,nan,nan,nan,nan,nan,nan,nan,nan,nan,nan,0.00064861,0.000649332,0.000377995,1.32726e+09,1.4992,-0.1107,-0.0428,1.32726e+09,2.76394,9.412,-0.6974,nan,nan,nan,nan,nan,nan,nan,nan,nan,nan
nan,nan,nan,nan,nan,nan,nan,nan,nan,nan,-0.58094,nan,nan,nan,nan,nan,5.81544,nan,nan,nan,nan,nan,1.32726e+09,9.24787,nan,nan,nan,nan,nan,nan,nan,nan,nan,nan,nan,nan,nan,nan,nan,nan,nan,nan,nan,nan,nan,nan,nan,nan,nan,nan,nan,nan,nan,nan
nan,nan,nan,nan,nan,nan,nan,nan,nan,nan,nan,nan,nan,nan,nan,nan,nan,nan,nan,nan,nan,nan,1.32726e+09,nan,nan,nan,nan,nan,nan,nan,nan,nan,nan,0.00068367,0.000592038,0.000320184,1.32726e+09,-1.0307,0.0615,-0.0856,1.32726e+09,2.76384,9.41,-0.6962,nan,nan,nan,nan,nan,nan,nan,nan,nan,nan
nan,nan,nan,nan,nan,nan,nan,nan,nan,nan,nan,nan,nan,nan,nan,nan,nan,nan,nan,nan,nan,nan,1.32726e+09,nan,nan,nan,nan,nan,nan,nan,nan,nan,nan,0.00075379,0.000611136,0.000689285,1.32726e+09,0.8433,0.0246,-0.0856,1.32726e+09,2.76375,9.415,-0.6976,nan,nan,nan,nan,nan,nan,nan,nan,nan,nan
0.0,nan,nan,nan,nan,nan,nan,nan,nan,nan,nan,nan,nan,nan,nan,nan,nan,nan,nan,nan,nan,nan,1.32726e+09,nan,nan,nan,nan,nan,nan,nan,nan,nan,nan,nan,nan,nan,nan,nan,nan,nan,nan,nan,nan,nan,nan,nan,nan,nan,nan,nan,nan,nan,nan,nan
nan,nan,nan,nan,nan,nan,nan,nan,nan,nan,nan,nan,nan,nan,nan,nan,nan,nan,nan,nan,nan,nan,1.32726e+09,nan,nan,nan,nan,nan,nan,nan,nan,nan,nan,0.00080638,0.000525195,0.000333525,1.32726e+09,1.1244,0.0246,-0.0856,1.32726e+09,2.7637,9.416,-0.6971,nan,nan,nan,nan,nan,nan,nan,nan,nan,nan
nan,nan,nan,nan,nan,nan,nan,nan,nan,nan,nan,nan,nan,nan,nan,nan,nan,nan,nan,nan,nan,nan,1.32726e+09,nan,nan,nan,nan,nan,nan,nan,nan,nan,nan,0.00092909,0.00057294,0.00048917,1.32726e+09,1.2181,0.0246,-0.0856,1.32726e+09,2.76363,9.408,-0.6956,nan,nan,nan,nan,nan,nan,nan,nan,nan,nan
nan,nan,nan,nan,nan,nan,nan,nan,nan,nan,nan,nan,nan,nan,nan,nan,nan,nan,nan,nan,nan,nan,1.32726e+09,nan,nan,nan,nan,nan,nan,nan,nan,nan,nan,0.00057849,0.000553842,0.000409124,1.32726e+09,0.8433,0.0369,-0.0856,1.32726e+09,2.76359,9.415,-0.6961,nan,nan,nan,nan,nan,nan,nan,nan,nan,nan
nan,nan,nan,nan,nan,nan,nan,nan,0.609973,nan,nan,nan,nan,nan,nan,nan,nan,nan,nan,nan,nan,nan,1.32726e+09,nan,-0.0541052,nan,nan,nan,nan,nan,nan,nan,nan,nan,nan,nan,nan,nan,nan,nan,nan,nan,nan,nan,nan,nan,nan,nan,nan,nan,nan,nan,nan,nan
nan,nan,nan,nan,nan,nan,nan,nan,nan,nan,-0.58094,nan,nan,nan,nan,nan,5.78577,nan,nan,nan,nan,nan,1.32726e+09,9.2309,nan,nan,nan,nan,nan,nan,nan,nan,nan,nan,nan,nan,nan,nan,nan,nan,nan,nan,nan,nan,nan,nan,nan,nan,nan,nan,nan,nan,nan,nan
nan,nan,nan,nan,nan,nan,nan,nan,nan,nan,nan,nan,nan,nan,nan,nan,nan,nan,nan,nan,nan,nan,1.32726e+09,nan,nan,nan,nan,nan,nan,nan,nan,nan,nan,0.00056096,0.000677979,0.000333525,1.32726e+09,1.1244,0.0246,-0.0856,1.32726e+09,2.76373,9.409,-0.6934,nan,nan,nan,nan,nan,nan,nan,nan,nan,nan
nan,nan,nan,nan,nan,nan,nan,nan,nan,nan,nan,nan,nan,nan,nan,nan,nan,nan,nan,nan,nan,nan,1.32726e+09,nan,nan,nan,nan,nan,nan,nan,nan,nan,nan,0.00078885,0.000553842,0.000302396,1.32726e+09,0.7496,-0.0615,-0.0856,1.32726e+09,2.76363,9.404,-0.6964,nan,nan,nan,nan,nan,nan,nan,nan,nan,nan
nan,nan,nan,nan,nan,nan,nan,nan,nan,nan,nan,nan,nan,nan,nan,nan,nan,nan,nan,nan,nan,nan,1.32726e+09,nan,nan,nan,nan,nan,nan,nan,nan,nan,nan,0.00091156,0.000515646,0.000369101,1.32726e+09,0.2811,-0.0984,-0.0856,1.32726e+09,2.76349,9.422,-0.696,nan,nan,nan,nan,nan,nan,nan,nan,nan,nan
nan,nan,nan,nan,nan,nan,nan,nan,nan,nan,nan,nan,nan,nan,nan,nan,nan,nan,nan,nan,nan,nan,1.32726e+09,nan,nan,nan,nan,nan,nan,nan,nan,nan,nan,0.00049084,0.000735273,0.000329078,1.32726e+09,1.7803,0.0369,-0.0856,1.32726e+09,2.76333,9.419,-0.6955,nan,nan,nan,nan,nan,nan,nan,nan,nan,nan
0.0,nan,nan,nan,nan,nan,nan,nan,nan,nan,nan,nan,nan,nan,nan,nan,nan,nan,nan,nan,nan,nan,1.32726e+09,nan,nan,nan,nan,nan,nan,nan,nan,nan,nan,nan,nan,nan,nan,nan,nan,nan,nan,nan,nan,nan,nan,nan,nan,nan,nan,nan,nan,nan,nan,nan
nan,nan,nan,nan,nan,nan,nan,nan,nan,nan,nan,nan,nan,nan,nan,nan,nan,nan,nan,nan,nan,nan,1.32726e+09,nan,nan,nan,nan,nan,nan,nan,nan,nan,nan,0.00066614,0.000677979,0.000346866,1.32726e+09,-1.6866,-0.0123,-0.0428,1.32726e+09,2.76333,9.409,-0.6957,nan,nan,nan,nan,nan,nan,nan,nan,nan,nan
nan,nan,nan,nan,nan,nan,nan,nan,nan,nan,nan,nan,nan,nan,nan,nan,nan,nan,nan,nan,nan,nan,1.32726e+09,nan,nan,nan,nan,nan,nan,nan,nan,nan,nan,0.00071873,0.000630234,0.000395783,1.32726e+09,1.5929,0.0984,-0.0428,1.32726e+09,2.76326,9.412,-0.6961,nan,nan,nan,nan,nan,nan,nan,nan,nan,nan
nan,nan,nan,nan,nan,nan,nan,nan,nan,nan,-0.579748,nan,nan,nan,nan,nan,5.83638,nan,nan,nan,nan,nan,1.32726e+09,9.23049,nan,nan,nan,nan,nan,nan,nan,nan,nan,nan,nan,nan,nan,nan,nan,nan,nan,nan,nan,nan,nan,nan,nan,nan,nan,nan,nan,nan,nan,nan
nan,nan,nan,nan,nan,nan,nan,nan,nan,nan,nan,nan,nan,nan,nan,nan,nan,nan,nan,nan,nan,nan,1.32727e+09,nan,nan,nan,nan,nan,nan,nan,nan,nan,nan,0.00068367,0.000515646,0.000377995,1.32727e+09,-0.1874,0.123,0.0,1.32727e+09,2.76326,9.415,-0.6959,nan,nan,nan,nan,nan,nan,nan,nan,nan,nan
nan,nan,nan,nan,nan,nan,nan,nan,nan,nan,nan,nan,nan,nan,nan,nan,nan,nan,nan,nan,nan,nan,1.32727e+09,nan,nan,nan,nan,nan,nan,nan,nan,nan,nan,0.00066614,0.000639783,0.000373548,1.32727e+09,1.5929,0.123,-0.0428,1.32727e+09,2.76321,9.414,-0.6961,nan,nan,nan,nan,nan,nan,nan,nan,nan,nan
nan,nan,nan,nan,nan,nan,nan,nan,nan,nan,nan,nan,nan,nan,nan,nan,nan,nan,nan,nan,nan,nan,1.32727e+09,nan,nan,nan,nan,nan,nan,nan,nan,nan,nan,0.00061355,0.000716175,0.000386889,1.32727e+09,3.3732,0.0861,-0.0428,1.32727e+09,2.76326,9.409,-0.6968,nan,nan,nan,nan,nan,nan,nan,nan,nan,nan
nan,nan,nan,nan,nan,nan,nan,nan,nan,nan,nan,nan,nan,nan,nan,nan,nan,nan,nan,nan,nan,nan,1.32727e+09,nan,nan,nan,nan,nan,nan,nan,nan,nan,nan,0.00056096,0.00057294,0.000297949,1.32727e+09,1.4992,-0.0615,-0.0856,1.32727e+09,2.76318,9.416,-0.6967,nan,nan,nan,nan,nan,nan,nan,nan,nan,nan
nan,nan,nan,nan,nan,nan,nan,nan,nan,nan,nan,nan,nan,nan,nan,nan,nan,nan,nan,nan,nan,nan,1.32727e+09,nan,nan,nan,nan,nan,nan,nan,nan,nan,nan,0.0007012,0.000563391,0.00040023,1.32727e+09,1.1244,0.0984,-0.0856,1.32727e+09,2.76314,9.415,-0.6961,nan,nan,nan,nan,nan,nan,nan,nan,nan,nan
0.0,nan,nan,nan,nan,nan,nan,nan,nan,nan,nan,nan,nan,nan,nan,nan,nan,nan,nan,nan,nan,nan,1.32727e+09,nan,nan,nan,nan,nan,nan,nan,nan,nan,nan,nan,nan,nan,nan,nan,nan,nan,nan,nan,nan,nan,nan,nan,nan,nan,nan,nan,nan,nan,nan,nan
nan,nan,nan,nan,nan,nan,nan,nan,nan,nan,-0.58094,nan,nan,nan,nan,nan,5.75261,nan,nan,nan,nan,nan,1.32727e+09,9.24539,nan,nan,nan,nan,nan,nan,nan,nan,nan,nan,nan,nan,nan,nan,nan,nan,nan,nan,nan,nan,nan,nan,nan,nan,nan,nan,nan,nan,nan,nan
nan,nan,nan,nan,nan,nan,nan,nan,nan,nan,nan,nan,nan,nan,nan,nan,nan,nan,nan,nan,nan,nan,1.32727e+09,nan,nan,nan,nan,nan,nan,nan,nan,nan,nan,0.00063108,0.000563391,0.000364654,1.32727e+09,-0.6559,0.0738,-0.0428,1.32727e+09,2.76323,9.413,-0.6965,nan,nan,nan,nan,nan,nan,nan,nan,nan,nan
nan,nan,nan,nan,nan,nan,nan,nan,nan,nan,nan,nan,nan,nan,nan,nan,nan,nan,nan,nan,nan,nan,1.32727e+09,nan,nan,nan,nan,nan,nan,nan,nan,nan,nan,0.00063108,0.000630234,0.000564769,1.32727e+09,0.937,0.0246,-0.0428,1.32727e+09,2.76311,9.406,-0.696,nan,nan,nan,nan,nan,nan,nan,nan,nan,nan
nan,nan,nan,nan,nan,nan,nan,nan,nan,nan,nan,nan,nan,nan,nan,nan,nan,nan,nan,nan,nan,nan,1.32727e+09,nan,nan,nan,nan,nan,nan,nan,nan,nan,nan,0.0007012,0.000601587,0.000351313,1.32727e+09,1.2181,-0.0984,-0.0856,1.32727e+09,2.76313,9.417,-0.6961,nan,nan,nan,nan,nan,nan,nan,nan,nan,nan
nan,nan,nan,nan,nan,nan,nan,nan,nan,nan,nan,nan,nan,nan,nan,nan,nan,nan,nan,nan,nan,nan,1.32727e+09,nan,nan,nan,nan,nan,nan,nan,nan,nan,nan,0.00057849,0.000506097,0.000324631,1.32727e+09,0.7496,-0.0123,-0.0428,1.32727e+09,2.76307,9.419,-0.6968,nan,nan,nan,nan,nan,nan,nan,nan,nan,nan
nan,nan,nan,nan,nan,nan,nan,nan,nan,nan,nan,nan,nan,nan,nan,nan,nan,nan,nan,nan,nan,nan,1.32727e+09,nan,nan,nan,nan,nan,nan,nan,nan,nan,nan,0.00077132,0.000544293,0.000329078,1.32727e+09,1.3118,-0.0738,-0.0856,1.32727e+09,2.76306,9.409,-0.6969,nan,nan,nan,nan,nan,nan,nan,nan,nan,nan
nan,nan,nan,nan,nan,nan,nan,nan,nan,nan,nan,nan,nan,nan,nan,nan,nan,nan,nan,nan,nan,nan,1.32727e+09,nan,nan,nan,nan,nan,nan,nan,nan,nan,nan,0.0008765,0.000639783,0.000280161,1.32727e+09,0.937,0.0123,-0.0856,1.32727e+09,2.76302,9.411,-0.6965,nan,nan,nan,nan,nan,nan,nan,nan,nan,nan
nan,nan,nan,nan,nan,nan,nan,nan,nan,nan,-0.58094,nan,nan,nan,nan,nan,5.75435,nan,nan,nan,nan,nan,1.32727e+09,9.22056,nan,nan,nan,nan,nan,nan,nan,nan,nan,nan,nan,nan,nan,nan,nan,nan,nan,nan,nan,nan,nan,nan,nan,nan,nan,nan,nan,nan,nan,nan
nan,nan,nan,nan,nan,nan,nan,nan,nan,nan,nan,nan,nan,nan,nan,nan,nan,nan,nan,nan,nan,nan,1.32727e+09,nan,nan,nan,nan,nan,nan,nan,nan,nan,nan,0.00089403,0.000601587,0.000382442,1.32727e+09,0.937,0.0492,0.0,1.32727e+09,2.76302,9.412,-0.6964,nan,nan,nan,nan,nan,nan,nan,nan,nan,nan
0.0,nan,nan,nan,nan,nan,nan,nan,nan,nan,nan,nan,nan,nan,nan,nan,nan,nan,nan,nan,nan,nan,1.32727e+09,nan,nan,nan,nan,nan,nan,nan,nan,nan,nan,nan,nan,nan,nan,nan,nan,nan,nan,nan,nan,nan,nan,nan,nan,nan,nan,nan,nan,nan,nan,nan
nan,nan,nan,nan,nan,nan,nan,nan,nan,nan,nan,nan,nan,nan,nan,nan,nan,nan,nan,nan,nan,nan,1.32727e+09,nan,nan,nan,nan,nan,nan,nan,nan,nan,nan,0.00063108,0.00066843,0.000422465,1.32727e+09,1.5929,0.0,0.0,1.32727e+09,2.76328,9.416,-0.6964,nan,nan,nan,nan,nan,nan,nan,nan,nan,nan
nan,nan,nan,nan,nan,nan,nan,nan,nan,nan,nan,nan,nan,nan,nan,nan,nan,nan,nan,nan,nan,nan,1.32727e+09,nan,nan,nan,nan,nan,nan,nan,nan,nan,nan,0.00063108,0.000582489,0.000418018,1.32727e+09,-0.3748,-0.0492,-0.0856,1.32727e+09,2.7632,9.419,-0.694,nan,nan,nan,nan,nan,nan,nan,nan,nan,nan
nan,nan,nan,nan,nan,nan,nan,nan,nan,nan,nan,nan,nan,nan,nan,nan,nan,nan,nan,nan,nan,nan,1.32727e+09,nan,nan,nan,nan,nan,nan,nan,nan,nan,nan,0.00082391,0.000582489,0.000458041,1.32727e+09,3.1858,0.1599,-0.0856,1.32727e+09,2.76306,9.407,-0.6951,nan,nan,nan,nan,nan,nan,nan,nan,nan,nan
nan,nan,nan,nan,nan,nan,nan,nan,nan,nan,nan,nan,nan,nan,nan,nan,nan,nan,nan,nan,nan,nan,1.32727e+09,nan,nan,50865.0,nan,nan,92.309,nan,nan,nan,nan,nan,nan,nan,nan,nan,nan,nan,nan,nan,nan,nan,nan,nan,nan,nan,nan,nan,nan,nan,nan,nan
nan,nan,nan,nan,nan,nan,nan,nan,nan,nan,nan,nan,nan,nan,nan,nan,nan,nan,nan,nan,nan,nan,1.32727e+09,nan,nan,nan,nan,nan,nan,nan,nan,nan,nan,0.00108686,0.000534744,0.000369101,1.32727e+09,0.7496,0.0,-0.0428,1.32727e+09,2.7633,9.416,-0.696,nan,nan,nan,nan,nan,nan,nan,nan,nan,nan
nan,nan,nan,nan,nan,nan,nan,nan,nan,nan,-0.58094,nan,nan,nan,nan,nan,5.78926,nan,2.49969,-1.0,nan,nan,1.32727e+09,9.22594,nan,nan,5.86288,nan,nan,nan,nan,nan,nan,nan,nan,nan,nan,nan,nan,nan,nan,nan,nan,nan,nan,nan,nan,nan,nan,nan,nan,nan,508.0,nan
nan,nan,nan,nan,nan,nan,nan,nan,nan,nan,nan,nan,nan,nan,nan,nan,nan,nan,nan,nan,nan,nan,1.32727e+09,nan,nan,nan,nan,nan,nan,nan,nan,nan,nan,0.00073626,0.000563391,0.000337972,1.32727e+09,-0.0937,-0.0615,-0.0856,1.32727e+09,2.76326,9.408,-0.6957,nan,nan,nan,nan,nan,nan,nan,nan,nan,nan
nan,213.0,3.89831,nan,nan,nan,nan,0.24087,nan,nan,nan,nan,nan,nan,nan,nan,nan,-6742.59,nan,nan,-6910.79,nan,1.32727e+09,nan,nan,nan,nan,nan,nan,nan,nan,nan,nan,nan,nan,nan,nan,nan,nan,nan,nan,nan,nan,nan,nan,nan,nan,nan,nan,nan,nan,nan,nan,nan
